[{"release":{"name":"The Twilight Saga: New Moon Original Motion Picture Soundtrack","id":617497},"artist":{"similar":"ARVN9FZ1187FB393F1","familiarity":0.918451789,"hotttnesss":0.828906302,"terms":"rock","latitude":37.15735675013362,"name":"The Killers","location":"Not available","id":"ARVG4OK1187B9B6BD3","termsFreq":0,"longitude":-63.933357868519515},"song":{"title":"A White Demon Love Song (Soundtrack Album Version)"}},{"release":{"name":"Who?What?Why?When?Where?","id":235684},"artist":{"similar":"ARD3QNL1187FB3E35A","familiarity":0.389837556,"hotttnesss":0.338400248,"terms":"punk","latitude":37.15735675013362,"name":"Mad Are Sane_ The","location":"Not available","id":"ARPKMIM1187FB397DE","termsFreq":0,"longitude":-63.933357868519515},"song":{"title":"Animal Crimes"}},{"release":{"name":"Messiaen: 100th Anniversary Box Set","id":321893},"artist":{"similar":"ARYCB4M1187B9B4CA6","familiarity":0.590804514,"hotttnesss":0.419100413,"terms":"religious music","latitude":37.15735675013362,"name":"Olivier Messiaen","location":"Not available","id":"AR342K51187B98B571","termsFreq":0,"longitude":-63.933357868519515},"song":{"title":"La NativitA(c) Du Seigneur (1935) - 9 MA(c)ditations : I La Vierge Et L\u0027enfant"}},{"release":{"name":"Beasts of Burden","id":470948},"artist":{"similar":"ARB61BZ1187FB46277","familiarity":0.47902341,"hotttnesss":0.317303966,"terms":"dirty south rap","latitude":32.58507,"name":"Workhorse","location":"Mississippi","id":"ARWUK9L11C8A42C37B","termsFreq":0,"longitude":-89.87374},"song":{"title":"Flight of the Elephant"}},{"release":{"name":"Crowbar","id":195247},"artist":{"similar":"ARKNGPL1187B9B90F0","familiarity":0.693883853,"hotttnesss":0.491099453,"terms":"sludge metal","latitude":37.15735675013362,"name":"Crowbar","location":"Louisiana","id":"ARWGLPE1187FB3E54C","termsFreq":0,"longitude":-63.933357868519515},"song":{"title":"No Quarter"}},{"release":{"name":"Humboldt Beginnings","id":519747},"artist":{"similar":"ARV4KO21187FB38008","familiarity":0.756063871,"hotttnesss":0.491468882,"terms":"rap","latitude":34.05349,"name":"The Pharcyde","location":"Los Angeles, CA","id":"AR82DJK1187B991107","termsFreq":0,"longitude":-118.24532},"song":{"title":"Storm"}},{"release":{"name":"The Very Best","id":6968},"artist":{"similar":"ARKNAD81187B98F8C9","familiarity":0.545159296,"hotttnesss":0.351555861,"terms":"ccm","latitude":37.15735675013362,"name":"Wayne Watson","location":"Wisner, LA","id":"ARC43071187B990240","termsFreq":0,"longitude":-63.933357868519515},"song":{"title":"Freedom (LP Version)"}},{"release":{"name":"Personal Business (Explicit)","id":22455},"artist":{"similar":"ARLMHFV1187B9A3833","familiarity":0.552053803,"hotttnesss":0.341376268,"terms":"gangster rap","latitude":37.15735675013362,"name":"Bad Azz","location":"Not available","id":"AREB22L1187B9A4BCE","termsFreq":0,"longitude":-63.933357868519515},"song":{"title":"How We Get Down"}},{"release":{"name":"Piano Voix","id":371969},"artist":{"similar":"AR656BL1187B98F7C8","familiarity":0.448892805,"hotttnesss":0.398442224,"terms":"chanson","latitude":37.15735675013362,"name":"MichA\"le Bernard","location":"Not available","id":"ARKJKVO1187FB49D0A","termsFreq":0,"longitude":-63.933357868519515},"song":{"title":"Canal de jonage"}},{"release":{"name":"Carpe Diem","id":226414},"artist":{"similar":"ARV01OT1187FB39656","familiarity":0.631702562,"hotttnesss":0.458210742,"terms":"ballad","latitude":37.15735675013362,"name":"Lara Fabian","location":"Not available","id":"AREMOC71187B996C2F","termsFreq":0,"longitude":-63.933357868519515},"song":{"title":"RamA\"ne Moi"}},{"release":{"name":"Billo on G.T. Road","id":540823},"artist":{"similar":"ARBBOSE11F50C49BCE","familiarity":0.442200548,"hotttnesss":0.413665501,"terms":"bhangra","latitude":37.15735675013362,"name":"Abrar - Ul - Haq","location":"Not available","id":"ARUP7CF1187FB40EEB","termsFreq":0,"longitude":-63.933357868519515},"song":{"title":"Hello Hello"}},{"release":{"name":"Another Last Shot","id":437093},"artist":{"similar":"ARRVNON1269FB36825","familiarity":0.520726488,"hotttnesss":0.359260264,"terms":"happy hardcore","latitude":37.15735675013362,"name":"Vivian","location":"CANADA - Ontario","id":"ARBQ5TQ1187B992B8A","termsFreq":0,"longitude":-63.933357868519515},"song":{"title":"Another Last Shot (Album Version)"}},{"release":{"name":"Live In Paris","id":135645},"artist":{"similar":"ARG5N201187FB570F1","familiarity":0.567313224,"hotttnesss":0.580013183,"terms":"dance pop","latitude":37.15735675013362,"name":"Seal","location":"Paddington, London, England","id":"ARAIABB1187B9AC6E2","termsFreq":0,"longitude":-63.933357868519515},"song":{"title":"Prayer For The Dying (Live In Paris)"}},{"release":{"name":"Bone Dry - Original Motion Picture Soundtrack","id":557862},"artist":{"similar":"ARYXHTJ1187B995573","familiarity":0.447808057,"hotttnesss":0.29191313,"terms":"contemporary classical music","latitude":37.15735675013362,"name":"Scott Glasgow","location":"Not available","id":"ARG51IA1187B9B143A","termsFreq":0,"longitude":-63.933357868519515},"song":{"title":"Hunted"}},{"release":{"name":"Live Fast_ Love Hard_ Die Young (Best of_ Vol. 1)","id":769560},"artist":{"similar":"ARFM2581187FB3BCC1","familiarity":0.590473194,"hotttnesss":0.418989675,"terms":"honky tonk","latitude":32.51461,"name":"Faron Young","location":"Shreveport, LA","id":"ARKBTPV1187FB38A79","termsFreq":0,"longitude":-93.74727},"song":{"title":"I\u0027ll Be Yours"}},{"release":{"name":"Solon kA\u0027no","id":321338},"artist":{"similar":"AR03VDD1187FB3DD32","familiarity":0.315307851,"hotttnesss":0.229738498,"terms":"latin jazz","latitude":37.15735675013362,"name":"Djelimady Tounkara","location":"Not available","id":"ARLV03V1187B9A33A9","termsFreq":0,"longitude":-63.933357868519515},"song":{"title":"SarankA(c)gni"}},{"release":{"name":"Charismatisches Selbstimage - Selbst-Management","id":277526},"artist":{"similar":"ARFGXKT12B3B354D52","familiarity":0.311752508,"hotttnesss":0.252080527,"terms":"meditation","latitude":37.15735675013362,"name":"Kurt Tepperwein","location":"Not available","id":"ARLMCCW1241B9CE7CB","termsFreq":0,"longitude":-63.933357868519515},"song":{"title":"Subliminal ohne Naturgeraeusche"}},{"release":{"name":"Gluck: OrfA(c)e et Euridice","id":774717},"artist":{"similar":"AR5R7791187FB3A8C3","familiarity":0.429603017,"hotttnesss":0.370441155,"terms":"opera","latitude":37.15735675013362,"name":"Juan Diego FlA3rez / Orquesta SinfA3nica de Madrid / JesAos LA3pez-Cobos","location":"Not available","id":"AR4B1LP1187FB55C83","termsFreq":0,"longitude":-63.933357868519515},"song":{"title":"Eurydice! ombre chA\"re!"}},{"release":{"name":"Holding Up Half the Sky: Voices of Celtic Women","id":620827},"artist":{"similar":"ARNCOPS1187FB5A086","familiarity":0.597113361,"hotttnesss":0.376556981,"terms":"country rock","latitude":53.41961,"name":"Mary Black \u0026 General Humbert","location":"Ireland","id":"AR82GTS1187FB5662F","termsFreq":0,"longitude":-8.24055},"song":{"title":"Isle of St. Helena"}},{"release":{"name":"Jealous Me Was Killed By Curiosity","id":146667},"artist":{"similar":"ARN1E5A1187FB45EB2","familiarity":0.605538219,"hotttnesss":0.307540085,"terms":"experimental pop","latitude":33.95319,"name":"Moros Eros","location":"Marietta, GA","id":"ARU2I2B1187FB472E8","termsFreq":0,"longitude":-84.54588},"song":{"title":"Safety Net (Album Version)"}},{"release":{"name":"Le Monde de Pierrot","id":584987},"artist":{"similar":"ARH1E5Q1187FB4B8F2","familiarity":0.510301323,"hotttnesss":0.352976472,"terms":"chanson","latitude":37.15735675013362,"name":"Pierre Perret","location":"Not available","id":"ARW45YR1187FB3DE95","termsFreq":0,"longitude":-63.933357868519515},"song":{"title":"Marcel"}},{"release":{"name":"PEECHY","id":599979},"artist":{"similar":"ARGW2PZ1187B9B9258","familiarity":0.596275994,"hotttnesss":0.341959997,"terms":"hip hop","latitude":43.04181,"name":"Speech","location":"Milwaukee, WI","id":"ARC95UW1187B9B9A62","termsFreq":0,"longitude":-87.90684},"song":{"title":"A Talk With Dad"}},{"release":{"name":"Couka","id":288788},"artist":{"similar":"AR656BL1187B98F7C8","familiarity":0.453912533,"hotttnesss":0.0,"terms":"chanson","latitude":37.15735675013362,"name":"Jean Corti","location":"Not available","id":"AR7Y8LR1187B991B6F","termsFreq":0,"longitude":-63.933357868519515},"song":{"title":"C\u0027Etait Bien"}},{"release":{"name":"Callas Sings Puccini","id":313025},"artist":{"similar":"ARSLGYI12454A4287A","familiarity":0.612858654,"hotttnesss":0.360344686,"terms":"opera","latitude":40.71455,"name":"Maria Callas/Eugenio Fernandi/Elisabeth Schwarzkopf/Giuseppe Nessi/Nicola Zaccaria/Mario Borriello/Renato Ercolani/Piero de Palma/Giulio Mauri/Elisabetta Fusco/Pinuccia Perotti/Coro del Teatro alla Scala_ Milano/Orchestra del Teatro alla Scala_ Milano/Tul","location":"New York, NY","id":"ARK7ZPW1187B99C170","termsFreq":0,"longitude":-74.00712},"song":{"title":"Turandot (2008 Digital Remaster)_ Act III - Scene I: Nessum dorma!"}},{"release":{"name":"Rundown/Welcome To The Jungle","id":285172},"artist":{"similar":"AR4AX7J1187B9B83AF","familiarity":0.622874939,"hotttnesss":0.461245798,"terms":"video game music","latitude":37.15735675013362,"name":"Harry Gregson-Williams","location":"Not available","id":"AR71A931187B99CDD9","termsFreq":0,"longitude":-63.933357868519515},"song":{"title":"Whip Fight"}},{"release":{"name":"Cruzando El RAo","id":29398},"artist":{"similar":"AR1FROD1187B9B984C","familiarity":0.515044056,"hotttnesss":0.316692162,"terms":"pop rock","latitude":37.15735675013362,"name":"Tam Tam Go!","location":"Not available","id":"ARGNGRI11E2835D567","termsFreq":0,"longitude":-63.933357868519515},"song":{"title":"Atrapados En La Red"}},{"release":{"name":"Richard Strauss: Ein Heldenleben; Tod und VerklA$?rung","id":294799},"artist":{"similar":"ARDTQVO12454A43898","familiarity":0.407997239,"hotttnesss":0.33310883,"terms":"easy listening","latitude":37.15735675013362,"name":"David Zinman","location":"Not available","id":"ARJDUON1187B989F69","termsFreq":0,"longitude":-63.933357868519515},"song":{"title":"Des Helden Widersacher"}},{"release":{"name":"The Death Of Romance","id":757194},"artist":{"similar":"AR7MC4I1187FB50B54","familiarity":0.644519692,"hotttnesss":0.405618982,"terms":"industrial rock","latitude":37.15735675013362,"name":"Zeromancer","location":"Not available","id":"ARQDWBG1187B9891D7","termsFreq":0,"longitude":-63.933357868519515},"song":{"title":"V"}},{"release":{"name":"Ultimate Girl Groups","id":68118},"artist":{"similar":"ARNHMFD1187FB3B3F6","familiarity":0.692344531,"hotttnesss":0.51928812,"terms":"pop rap","latitude":37.15735675013362,"name":"Salt-N-Pepa","location":"Not available","id":"ARUQ6301187FB54EBA","termsFreq":0,"longitude":-63.933357868519515},"song":{"title":"Push It"}},{"release":{"name":"Made In England","id":703994},"artist":{"similar":"ARWI0HO1187FB5311E","familiarity":0.520757635,"hotttnesss":0.404566538,"terms":"hard rock","latitude":37.15735675013362,"name":"Atomic Rooster","location":"United Kingdom","id":"ARG4KW31187FB51B7C","termsFreq":0,"longitude":-63.933357868519515},"song":{"title":"Little Bit of Inner Air"}},{"release":{"name":"KRAUS - Una Voz Universal","id":555767},"artist":{"similar":"AR4B1LP1187FB55C83","familiarity":0.477387134,"hotttnesss":0.363610865,"terms":"opera","latitude":37.15735675013362,"name":"Alfredo Kraus","location":"Not available","id":"AR5R7791187FB3A8C3","termsFreq":0,"longitude":-63.933357868519515},"song":{"title":"Los De AragA3n: \"Los De AragA3n"}},{"release":{"name":"Strictly Personal","id":27755},"artist":{"similar":"ARTMENO1187B98E8FD","familiarity":0.568171929,"hotttnesss":0.387496801,"terms":"blues-rock","latitude":37.15735675013362,"name":"Captain Beefheart \u0026 The Magic Band","location":"Not available","id":"ARONRBJ11F50C49E81","termsFreq":0,"longitude":-63.933357868519515},"song":{"title":"On Tomorrow"}},{"release":{"name":"Living Years","id":28828},"artist":{"similar":"ARYNX5Z1187B999686","familiarity":0.661766092,"hotttnesss":0.257381628,"terms":"pop rock","latitude":37.15735675013362,"name":"Mike And The Mechanics","location":"United Kingdom","id":"ARYGSFW1187FB519B1","termsFreq":0,"longitude":-63.933357868519515},"song":{"title":"Seeing Is Believing"}},{"release":{"name":"Songs About Jane","id":81735},"artist":{"similar":"ARY53RR1187B9AE485","familiarity":0.905477001,"hotttnesss":0.843380274,"terms":"pop","latitude":37.15735675013362,"name":"Maroon 5","location":"Los Angeles, CA","id":"ARF5M7Q1187FB501E8","termsFreq":0,"longitude":-63.933357868519515},"song":{"title":"Through With You"}},{"release":{"name":"Tell The World About This","id":146603},"artist":{"similar":"ART094K1187B9A08D0","familiarity":0.326699728,"hotttnesss":0.132384138,"terms":"folk-pop","latitude":39.73926,"name":"The Tarriers","location":"Illinois","id":"AR5995Z1187B9A112B","termsFreq":0,"longitude":-89.50409},"song":{"title":"Red Apple Juice (LP Version)"}},{"release":{"name":"The Very Best Of The Four Pennies","id":36198},"artist":{"similar":"ARMB4631187FB5CE71","familiarity":0.418517721,"hotttnesss":0.355378552,"terms":"brill building pop","latitude":37.15735675013362,"name":"The Four Pennies","location":"Not available","id":"ARZLX2S1187B991A47","termsFreq":0,"longitude":-63.933357868519515},"song":{"title":"Sweeter Than You"}},{"release":{"name":"The Flesh","id":86789},"artist":{"similar":"ARLUSLL1187FB48555","familiarity":0.476657191,"hotttnesss":0.360168091,"terms":"post-grunge","latitude":40.65507,"name":"The Flesh","location":"Brooklyn, NY","id":"ARBR7II1187B9B821E","termsFreq":0,"longitude":-73.94888},"song":{"title":"Sweet Defeat"}},{"release":{"name":"Jazzworks Volume I","id":323886},"artist":{"similar":"AR5N6X41187B988BFF","familiarity":0.45660506,"hotttnesss":0.360744984,"terms":"meditation","latitude":40.71455,"name":"Michael Whalen","location":"New York","id":"ARDXWVZ1187B9B52F1","termsFreq":0,"longitude":-74.00712},"song":{"title":"A World In Fast Forward"}},{"release":{"name":"Karelian Isthmus","id":239673},"artist":{"similar":"AR6W6KQ1187B9AAA53","familiarity":0.709010525,"hotttnesss":0.553566172,"terms":"progressive metal","latitude":37.15735675013362,"name":"Amorphis","location":"Not available","id":"ARV8T9T1187B99F3F4","termsFreq":0,"longitude":-63.933357868519515},"song":{"title":"The Lost Name of God"}},{"release":{"name":"The Flat Earth (Collector\u0027s Edition)","id":501703},"artist":{"similar":"AR0D7K21187B9AD14E","familiarity":0.641354081,"hotttnesss":0.384230563,"terms":"pop rock","latitude":30.08374,"name":"Thomas Dolby","location":"Cairo, Egypt","id":"ARMG34A1187FB548A8","termsFreq":0,"longitude":31.25536},"song":{"title":"Marseille (Live On Tour_ 1984)"}},{"release":{"name":"Ganz schAPn turbA1/4lent","id":805834},"artist":{"similar":"ARDAM7T1187B9B257B","familiarity":0.305177829,"hotttnesss":0.433721034,"terms":"cabaret","latitude":37.15735675013362,"name":"BA1/4lent Ceylan","location":"Not available","id":"ARIVGZI11E2835F1FC","termsFreq":0,"longitude":-63.933357868519515},"song":{"title":"BA1/4lent \u0026 Mompfreed: Mompfreedonium"}},{"release":{"name":"Retro Boosters","id":170819},"artist":{"similar":"ARJKH4K1187B99C039","familiarity":0.424757705,"hotttnesss":0.0,"terms":"tech house","latitude":37.15735675013362,"name":"Rockit","location":"Not available","id":"ARJ2PGP119B866993D","termsFreq":0,"longitude":-63.933357868519515},"song":{"title":"Some Kind of Record"}},{"release":{"name":"Lullaby School","id":491917},"artist":{"similar":"AR7OA5G1187B98D3A0","familiarity":0.441736297,"hotttnesss":0.306090645,"terms":"lullaby","latitude":37.15735675013362,"name":"Kris Gruen","location":"NY - New York City","id":"ARPTOWL11F50C47FB8","termsFreq":0,"longitude":-63.933357868519515},"song":{"title":"Prayer Walk"}},{"release":{"name":"Album","id":715037},"artist":{"similar":"ARGJ1ZL1187FB3FC38","familiarity":0.477963014,"hotttnesss":0.427015343,"terms":"reggaeton","latitude":-6.17144,"name":"Bonita","location":"jakarta","id":"ARLPXQE1187B99066C","termsFreq":0,"longitude":106.82782},"song":{"title":"Dead End Sign"}},{"release":{"name":"Estados","id":40248},"artist":{"similar":"ARN4SOC1187B9A02F9","familiarity":0.461741493,"hotttnesss":0.334252474,"terms":"latin jazz","latitude":37.15735675013362,"name":"Moraes Moreira","location":"Not available","id":"ARDZJ6H1187FB387F2","termsFreq":0,"longitude":-63.933357868519515},"song":{"title":"Felicidade"}},{"release":{"name":"Snivilisation","id":2004},"artist":{"similar":"ARYPTWE1187FB49D64","familiarity":0.693009204,"hotttnesss":0.498668875,"terms":"techno","latitude":51.27562,"name":"Orbital","location":"Sevenoaks, United Kingdom","id":"ARD5K161187B9AC784","termsFreq":0,"longitude":0.17898},"song":{"title":"Forever"}},{"release":{"name":"Interstate","id":590999},"artist":{"similar":"ARL6APF1187B9AE81F","familiarity":0.50039601,"hotttnesss":0.314882184,"terms":"power pop","latitude":37.15735675013362,"name":"20/20","location":"Not available","id":"ARMZ4PD1187B9ACBCD","termsFreq":0,"longitude":-63.933357868519515},"song":{"title":"I Never Did No Hitler"}},{"release":{"name":"A Fistful Of 4 Skins","id":610672},"artist":{"similar":"ARENGZO1187FB4CEB4","familiarity":0.528653456,"hotttnesss":0.0,"terms":"oi","latitude":37.15735675013362,"name":"4 Skins","location":"Not available","id":"ARQUFQK11F4C83C0D8","termsFreq":0,"longitude":-63.933357868519515},"song":{"title":"New War"}},{"release":{"name":"How Lucky I Am","id":759481},"artist":{"similar":"ARRY64L1187FB57E38","familiarity":0.598726841,"hotttnesss":0.426892681,"terms":"country","latitude":34.60515,"name":"Bryan White","location":"Lawton, OK","id":"ARG09R51187FB4D5C2","termsFreq":0,"longitude":-98.38983},"song":{"title":"God Gave Me You (Single/LP Version)"}},{"release":{"name":"Afriki zouk vol2","id":542714},"artist":{"similar":"ARI9ZSM1187FB377C5","familiarity":0.46143965,"hotttnesss":0.279743591,"terms":"zouk","latitude":52.88356,"name":"Betika_ Daouda","location":"UK - England - South East","id":"ARMW52H1187B98C835","termsFreq":0,"longitude":-1.97406},"song":{"title":"C\u0027est pas ma faute"}},{"release":{"name":"Ultimate Holt","id":573679},"artist":{"similar":"AR57Z841187B9B7D7D","familiarity":0.629463245,"hotttnesss":0.424791236,"terms":"lovers rock","latitude":18.01571,"name":"John Holt","location":"Kingston, Jamaica","id":"ARJPZSG1187FB3E985","termsFreq":0,"longitude":-76.79731},"song":{"title":"Only Just Begun"}},{"release":{"name":"Bloom","id":333532},"artist":{"similar":"ARQ7S2H1187B9AA49B","familiarity":0.430172046,"hotttnesss":0.354619059,"terms":"folk-pop","latitude":32.67828,"name":"Billy Pilgrim","location":"Georgia","id":"ARDE52X1187FB438CD","termsFreq":0,"longitude":-83.22295},"song":{"title":"Caroline (LP Version)"}},{"release":{"name":"The Best Of In The Summertime","id":428130},"artist":{"similar":"ARSZWK21187B9B26D7","familiarity":0.623696863,"hotttnesss":0.400211298,"terms":"pop rock","latitude":37.15735675013362,"name":"Mungo Jerry","location":"Not available","id":"AR07VS41187FB37944","termsFreq":0,"longitude":-63.933357868519515},"song":{"title":"It\u0027s A Secret"}},{"release":{"name":"Collecton","id":150859},"artist":{"similar":"ART8USP1187B98D5E4","familiarity":0.421132725,"hotttnesss":0.318834232,"terms":"ccm","latitude":37.15735675013362,"name":"DeGarmo \u0026 Key","location":"Not available","id":"ARB45GQ1187B98D2B4","termsFreq":0,"longitude":-63.933357868519515},"song":{"title":"Jericho  (Straight On Album Version)"}},{"release":{"name":"Talk To Your Daughter","id":762519},"artist":{"similar":"ARGRDHI1187B9B93F0","familiarity":0.604820432,"hotttnesss":0.383877494,"terms":"blues-rock","latitude":39.15093,"name":"Robben Ford","location":"Ukiah, CA","id":"AR7BMMV1187FB5B2D7","termsFreq":0,"longitude":-123.2079},"song":{"title":"Talk To Your Daughter (Album Version)"}},{"release":{"name":"Heartbeat","id":59669},"artist":{"similar":"ARFLSLE1187B9AC75E","familiarity":0.786921231,"hotttnesss":0.495306693,"terms":"chicago soul","latitude":41.88415,"name":"Curtis Mayfield","location":"Chicago, IL","id":"ARNMWP51187FB3E963","termsFreq":0,"longitude":-87.63241},"song":{"title":"You Better Stop"}},{"release":{"name":"Gone But Not Forgotten - Oscar Peterson","id":767061},"artist":{"similar":"AR6D5AS1187B98CD01","familiarity":0.531124493,"hotttnesss":0.382528158,"terms":"chill-out","latitude":37.15735675013362,"name":"Oscar Peterson Trio","location":"Not available","id":"ARZKUQI11F4C8467A5","termsFreq":0,"longitude":-63.933357868519515},"song":{"title":"I Got Rhythm"}},{"release":{"name":"We Sing of Only Blood or Love","id":371292},"artist":{"similar":"ART9GEK1187B98C119","familiarity":0.627917468,"hotttnesss":0.473918437,"terms":"blues-rock","latitude":29.59733,"name":"Dax Riggs","location":"Houma, LA","id":"AR2BG0R1187FB398C3","termsFreq":0,"longitude":-90.71913},"song":{"title":"Didn\u0027t Know Yet What I\u0027d Know When I Was Bleedin\u0027"}},{"release":{"name":"Rev","id":673082},"artist":{"similar":"ARE8GLF1187FB52532","familiarity":0.624967106,"hotttnesss":0.409712678,"terms":"dance rock","latitude":37.15735675013362,"name":"Porno For Pyros","location":"MILWAUKEE, Wisconsin","id":"ARIVB351187B9B485E","termsFreq":0,"longitude":-63.933357868519515},"song":{"title":"100 Ways ( LP Version )"}},{"release":{"name":"The Best Of The Ronettes","id":692717},"artist":{"similar":"AR7AGFV1187FB578BC","familiarity":0.567278592,"hotttnesss":0.533885537,"terms":"brill building pop","latitude":40.71455,"name":"The Ronettes","location":"New York, NY [The Bronx]","id":"ARCHKD91187B9A0A42","termsFreq":0,"longitude":-74.00712},"song":{"title":"Born To Be Together"}},{"release":{"name":"Zoo Is Sad_ People Are Cruel","id":790939},"artist":{"similar":"ARRGFFD1187B9AF330","familiarity":0.602359561,"hotttnesss":0.417172932,"terms":"twee pop","latitude":37.15735675013362,"name":"My Little Airport","location":"Hong Kong","id":"ARAO0RA1187FB587F2","termsFreq":0,"longitude":-63.933357868519515},"song":{"title":"Leo_ Are You Still Jumping Out Of Windows In Expensive Clothes?"}},{"release":{"name":"Les plus grandes chansons","id":680480},"artist":{"similar":"ARA0BLX1187FB43537","familiarity":0.482805248,"hotttnesss":0.293827445,"terms":"chanson","latitude":37.76509,"name":"JosA(c)lito","location":"Jaen","id":"ARJJ8I01187FB4CE98","termsFreq":0,"longitude":-3.79068},"song":{"title":"Soleil rouge"}},{"release":{"name":"Body And Soul","id":279019},"artist":{"similar":"ARCJMMQ1187B98D1FD","familiarity":0.754917646,"hotttnesss":0.507464243,"terms":"dance pop","latitude":53.45644,"name":"Rick Astley","location":"Newton-le-Willows, Merseyside, England","id":"ARWPYQI1187FB4D55A","termsFreq":0,"longitude":-2.63265},"song":{"title":"Hopelessly"}},{"release":{"name":"Whole Lotta Live 1998","id":320241},"artist":{"similar":"ARZ5CKV1187B9AE71A","familiarity":0.583178831,"hotttnesss":0.434253341,"terms":"jazz funk","latitude":37.15735675013362,"name":"The James Taylor Quartet","location":"Not available","id":"AR7PPJV1187FB397CC","termsFreq":0,"longitude":-63.933357868519515},"song":{"title":"Creation"}},{"release":{"name":"Call My Name","id":555842},"artist":{"similar":"AR43O9Y1187FB4A639","familiarity":0.563997692,"hotttnesss":0.349923661,"terms":"salsa","latitude":37.15735675013362,"name":"Joe Bataan","location":"Spanish Harlem, New York City, NY","id":"ARMHR011187B9A62B5","termsFreq":0,"longitude":-63.933357868519515},"song":{"title":"Ernestine"}},{"release":{"name":"Outtakes and Demos 1975 -  2003","id":603118},"artist":{"similar":"ARH0J5Q1187B99D53F","familiarity":0.503002306,"hotttnesss":0.0,"terms":"heartland rock","latitude":37.15735675013362,"name":"Joe Grushecky","location":"Not available","id":"ARZIKR01187B98DF08","termsFreq":0,"longitude":-63.933357868519515},"song":{"title":"Firewater"}},{"release":{"name":"ColecciA3n Diamante","id":63206},"artist":{"similar":"ARIEFPH1187FB5A45A","familiarity":0.571402429,"hotttnesss":0.384425906,"terms":"latin pop","latitude":37.15735675013362,"name":"Jose Luis Perales","location":"Not available","id":"ARWX7AO1187B9B91AA","termsFreq":0,"longitude":-63.933357868519515},"song":{"title":"No Soy Uno MA!s"}},{"release":{"name":"The Edge Of Love","id":265380},"artist":{"similar":"ART3KT21187FB450DC","familiarity":0.698770478,"hotttnesss":0.399451724,"terms":"chill-out","latitude":40.14323,"name":"Angelo Badalamenti / Keira Knightley","location":"New Jersey","id":"AR1PCLK1187FB5BBFF","termsFreq":0,"longitude":-74.72671},"song":{"title":"Overture/Blue Tahitian Moon"}},{"release":{"name":"Coleccion de Oro","id":507337},"artist":{"similar":"ARHMCAQ1187FB3D99E","familiarity":0.620963981,"hotttnesss":0.413254694,"terms":"vallenato","latitude":37.15735675013362,"name":"Carlos Vives","location":" ","id":"ARLAWDD1187FB48367","termsFreq":0,"longitude":-63.933357868519515},"song":{"title":"Cancion De Amor Eterno"}},{"release":{"name":"A Work In Progress","id":43642},"artist":{"similar":"ARHNMEZ11F50C4706C","familiarity":0.535292736,"hotttnesss":0.385470551,"terms":"southern gospel","latitude":37.15735675013362,"name":"Jeff And Sheri Easter","location":"Not available","id":"ARKFYS91187B98E58F","termsFreq":0,"longitude":-63.933357868519515},"song":{"title":"Loving By Heart"}},{"release":{"name":"Southern Convention Songs","id":155721},"artist":{"similar":"ARPY3PZ1187FB45623","familiarity":0.426882762,"hotttnesss":0.333303418,"terms":"country gospel","latitude":37.15735675013362,"name":"Bill \u0026 Gloria Gaither","location":"Not available","id":"ARBB58Y1187B9B621B","termsFreq":0,"longitude":-63.933357868519515},"song":{"title":"I\u0027ll Meet You By The River (Southern Convention Songs Version)"}},{"release":{"name":"Alles kommt wie es kommt","id":384165},"artist":{"similar":"AR4SOKG1187B98D2B0","familiarity":0.537533308,"hotttnesss":0.343884049,"terms":"neue deutsche welle","latitude":37.82245,"name":"Markus","location":"Kentucky","id":"AR6BUE51187B9B5D71","termsFreq":0,"longitude":-85.69091},"song":{"title":"Du machst mich irgendwann verrA1/4ckt"}},{"release":{"name":"Sleep Through The Static","id":198434},"artist":{"similar":"ARZQMTK1187FB4611A","familiarity":0.832011771,"hotttnesss":0.643072293,"terms":"rock","latitude":37.15735675013362,"name":"Jack Johnson","location":"Galveston, TX","id":"ARC8CQZ1187B98DECA","termsFreq":0,"longitude":-63.933357868519515},"song":{"title":"Adrift"}},{"release":{"name":"Back To The Beginning - Usher","id":667675},"artist":{"similar":"ARAWOLW1187FB3AB70","familiarity":0.856448924,"hotttnesss":0.854637828,"terms":"hip hop","latitude":37.15735675013362,"name":"Usher Featuring The Nu Beginning","location":"Atlanta, GA","id":"ARPDVPJ1187B9ADBE9","termsFreq":0,"longitude":-63.933357868519515},"song":{"title":"Only Human"}},{"release":{"name":"The Country Queen","id":667641},"artist":{"similar":"ARA7YDA1187B9A5776","familiarity":0.60383917,"hotttnesss":0.395791274,"terms":"country rock","latitude":38.68193,"name":"Skeeter Davis","location":"Dry Ridge, KY","id":"ARDY3451187B9A0226","termsFreq":0,"longitude":-84.59431},"song":{"title":"My Last Date (With You)"}},{"release":{"name":"Lost Together","id":7106},"artist":{"similar":"ARGCEMX1187B9921A4","familiarity":0.636423645,"hotttnesss":0.447935481,"terms":"country rock","latitude":43.64856,"name":"Blue Rodeo","location":"Toronto, Ontario, Canada","id":"ARD842G1187B997376","termsFreq":0,"longitude":-79.38533},"song":{"title":"Fools Like You"}},{"release":{"name":"Tribute to the Grand Ole Opry - Vol. 2","id":500031},"artist":{"similar":"ARGJTO11187FB39AC0","familiarity":0.400296035,"hotttnesss":0.391342452,"terms":"country gospel","latitude":37.15735675013362,"name":"Charlie Louvin","location":"Tennessee","id":"ARUVPZF1187FB4880D","termsFreq":0,"longitude":-63.933357868519515},"song":{"title":"See The Big Man Cry"}},{"release":{"name":"Legend","id":389249},"artist":{"similar":"ARVIZLO1187FB3DA48","familiarity":0.780264381,"hotttnesss":0.570106512,"terms":"reggae","latitude":37.15735675013362,"name":"Bob Marley \u0026 The Wailers","location":"Not available","id":"ARAZCWP129462A97F1","termsFreq":0,"longitude":-63.933357868519515},"song":{"title":"Three Little Birds"}},{"release":{"name":"Abstract Mind EP","id":470183},"artist":{"similar":"ARBLQHE11E2835D61E","familiarity":0.385430251,"hotttnesss":0.264368,"terms":"tech house","latitude":37.15735675013362,"name":"Juan Farcik","location":"Not available","id":"ARXFY0N11C8A423D05","termsFreq":0,"longitude":-63.933357868519515},"song":{"title":"Sunday Cream"}},{"release":{"name":"Donizetti: Anna Bolena","id":154491},"artist":{"similar":"ARSLGYI12454A4287A","familiarity":0.612858654,"hotttnesss":0.360344686,"terms":"opera","latitude":40.71455,"name":"Maria Callas/Gianni Raimondi/Gabriella Carturan/Plinio Clabassi/Nicola Rossi-Lemeni/Coro del Teatro alla Scala_ Milano/Noberto Mola/Orchestra del Teatro alla Scala_ Milano/Gianandrea Gavazzeni","location":"New York, NY","id":"ARK7ZPW1187B99C170","termsFreq":0,"longitude":-74.00712},"song":{"title":"Anna Bolena (1997 Digital Remaster): Alcun potria ascoltarti"}},{"release":{"name":"Game Over","id":555336},"artist":{"similar":"ARQAHO71187FB38C61","familiarity":0.586000058,"hotttnesss":0.409550595,"terms":"gabba","latitude":37.15735675013362,"name":"Hoodfellas","location":"Not available","id":"AR02PUA1187FB52574","termsFreq":0,"longitude":-63.933357868519515},"song":{"title":"If you Seek Amy"}},{"release":{"name":"The Bunny Striker Lee Story","id":818083},"artist":{"similar":"AR7DNHO1187B992B0B","familiarity":0.50373879,"hotttnesss":0.359290849,"terms":"rock steady","latitude":18.11526,"name":"Jackie Edwards","location":"Jamaica","id":"ARIHI8H1187B9B0058","termsFreq":0,"longitude":-77.27348},"song":{"title":"Ali Baba"}},{"release":{"name":"The Complete Discos Ideal Recordings_ Vol. 1","id":648863},"artist":{"similar":"AR3LDQT1187FB451DE","familiarity":0.233787991,"hotttnesss":0.0,"terms":"tejano","latitude":37.15735675013362,"name":"Carmen Y Laura","location":"Not available","id":"ARJTZHH11F4C83C530","termsFreq":0,"longitude":-63.933357868519515},"song":{"title":"Paloma Consentida"}},{"release":{"name":"En Vogue","id":279598},"artist":{"similar":"AR139EA1187FB567C2","familiarity":0.612953154,"hotttnesss":0.454541929,"terms":"chanson","latitude":48.85692,"name":"Jacques Dutronc","location":"Paris, France","id":"AR3QRJ91187B98E4C2","termsFreq":0,"longitude":2.34121},"song":{"title":"L\u0027Aventurier"}},{"release":{"name":"Motclub 903 Fa Yuan Di Du Le Le Edmond Leung Yin Yue Hui","id":158543},"artist":{"similar":"ARA8DDQ1187B9AE3A0","familiarity":0.43331739,"hotttnesss":0.349886289,"terms":"cantonese pop","latitude":37.15735675013362,"name":"Edmond Leung","location":"Not available","id":"ARGP7WY1187FB45464","termsFreq":0,"longitude":-63.933357868519515},"song":{"title":"Yi Xiao Shi Chong Yin"}},{"release":{"name":"Manhattan Mayhem (a history of the Dolls)","id":702585},"artist":{"similar":"AR9B5JX1187FB55D84","familiarity":0.717670525,"hotttnesss":0.479308459,"terms":"glam rock","latitude":37.15735675013362,"name":"New York Dolls","location":"New York, NY","id":"ARS1OWB1187B99EEAD","termsFreq":0,"longitude":-63.933357868519515},"song":{"title":"Trash (live Paris)"}},{"release":{"name":"Visa","id":263238},"artist":{"similar":"AR1SUNB1187FB41BC8","familiarity":0.622940428,"hotttnesss":0.370962958,"terms":"roots reggae","latitude":37.15735675013362,"name":"Junior Reid","location":"Jamaica","id":"ARB4ROA1187B9ACAEC","termsFreq":0,"longitude":-63.933357868519515},"song":{"title":"No Loafting"}},{"release":{"name":"Screamin\u0027 Jay Hawkins","id":151063},"artist":{"similar":"ARSAIUN1187FB398D3","familiarity":0.719492291,"hotttnesss":0.467565441,"terms":"rock \u0027n roll","latitude":37.15735675013362,"name":"Screamin\u0027 Jay Hawkins","location":"Cleveland, OH","id":"ARWVOHH1187FB5974B","termsFreq":0,"longitude":-63.933357868519515},"song":{"title":"Talk About Me"}},{"release":{"name":"Prayer: A Windham Hill Collection","id":295041},"artist":{"similar":"AREE9XF1187FB4060A","familiarity":0.461917431,"hotttnesss":0.360625671,"terms":"smooth jazz","latitude":37.15735675013362,"name":"Steve Erquiaga","location":"Not available","id":"ARHY20W1187B9B8262","termsFreq":0,"longitude":-63.933357868519515},"song":{"title":"The 23rd Psalm"}},{"release":{"name":"Shakin\u0027 All Over Again","id":707690},"artist":{"similar":"ARDNYAP12509416587","familiarity":0.044595915,"hotttnesss":0.0,"terms":"freakbeat","latitude":37.15735675013362,"name":"The Shirrows","location":"Not available","id":"ARWIHGT1269FCCF034","termsFreq":0,"longitude":-63.933357868519515},"song":{"title":"Leave Me Be"}},{"release":{"name":"How We Divide the Cake","id":581662},"artist":{"similar":"ARKTWBT128ABE10225","familiarity":0.474712354,"hotttnesss":0.332088981,"terms":"cabaret","latitude":37.15735675013362,"name":"Charlie Khan","location":"Not available","id":"ARGXJRQ1241B9C5FDE","termsFreq":0,"longitude":-63.933357868519515},"song":{"title":"Cheshire Grin"}},{"release":{"name":"Mighty Man","id":240730},"artist":{"similar":"ARYD07J1187FB57231","familiarity":0.437616284,"hotttnesss":0.314268241,"terms":"chicago blues","latitude":32.51461,"name":"Mighty Joe Young","location":"Shreveport, LA","id":"ARX8PZU1187B9AA7E2","termsFreq":0,"longitude":-93.74727},"song":{"title":"Wishy Washy Woman"}},{"release":{"name":"The Master Plan","id":28491},"artist":{"similar":"ARTOXOB1187B9B78C1","familiarity":0.502389764,"hotttnesss":0.342652377,"terms":"jazz rap","latitude":37.15735675013362,"name":"Dream Warriors","location":"Toronto, Ontario, Canada","id":"ARJXZX41187B9B6A43","termsFreq":0,"longitude":-63.933357868519515},"song":{"title":"Sound Clash (featuring Beenie Man) - FattaSly Extended Mix"}},{"release":{"name":"I Can\u0027t Stop Loving You","id":348099},"artist":{"similar":"ARKBTPV1187FB38A79","familiarity":0.540750151,"hotttnesss":0.379651219,"terms":"country rock","latitude":37.15735675013362,"name":"Don Gibson","location":"Shelby, North Carolina","id":"AR7CCCC1187FB578FF","termsFreq":0,"longitude":-63.933357868519515},"song":{"title":"(Prayer Is The Key To Heaven) Faith Unlocks The Door"}},{"release":{"name":"Alternative Summer 2009","id":491293},"artist":{"similar":"ARL6FF81187FB5A916","familiarity":0.93796475,"hotttnesss":0.566622888,"terms":"pop punk","latitude":37.15735675013362,"name":"Fall Out Boy","location":"Wilmette, IL","id":"ARSG7NQ1187FB57482","termsFreq":0,"longitude":-63.933357868519515},"song":{"title":"America\u0027s Suitehearts"}},{"release":{"name":"Marasma General","id":54098},"artist":{"similar":"AR426QR1187FB4546C","familiarity":0.439907658,"hotttnesss":0.311559176,"terms":"progressive house","latitude":37.15735675013362,"name":"Mau Mau","location":"Not available","id":"ARQVLQJ1187B98F11F","termsFreq":0,"longitude":-63.933357868519515},"song":{"title":"Finisterre (Live)"}},{"release":{"name":"Back To The 70\u0027S-The Very Best Of Dakis","id":206616},"artist":{"similar":"AREAHFM1242078103A","familiarity":0.336970428,"hotttnesss":0.0,"terms":"greek","latitude":37.15735675013362,"name":"Dakis","location":"Not available","id":"ARBKMHZ11F4C843491","termsFreq":0,"longitude":-63.933357868519515},"song":{"title":"Tsai Me Lemoni (2005 Digital Remaster)"}},{"release":{"name":"Radiant Health \u0026 Well-Being","id":599225},"artist":{"similar":"ARZ185I1187FB5B8C5","familiarity":0.525475742,"hotttnesss":0.372393097,"terms":"meditation","latitude":37.15735675013362,"name":"Steven Halpern","location":"Not available","id":"AROC6N61187FB40B14","termsFreq":0,"longitude":-63.933357868519515},"song":{"title":"Natural Light (Subliminal Self-Help)"}},{"release":{"name":"Sing Me To Sleep_ Mommy","id":536493},"artist":{"similar":"ARV7VUX1187B9B8D1C","familiarity":0.477467037,"hotttnesss":0.341981736,"terms":"cabaret","latitude":35.83073,"name":"Lari White","location":"Dunedin, FL","id":"ARO2PB81187B98EB4A","termsFreq":0,"longitude":-85.97874},"song":{"title":"The One Who Lives Inside Your Heart"}},{"release":{"name":"The Very Best Of Brenda Lee Vol.2","id":647420},"artist":{"similar":"ARA7YDA1187B9A5776","familiarity":0.669371502,"hotttnesss":0.566912407,"terms":"ballad","latitude":33.71197,"name":"Brenda Lee","location":"Lithonia, GA","id":"ARGKD4W1187B990E04","termsFreq":0,"longitude":-84.10599},"song":{"title":"If I\u0027M Dreaming just Let Me Dream"}},{"release":{"name":"Ride Ranger Ride","id":69802},"artist":{"similar":"ARXPMYJ11F919A78F9","familiarity":0.510367933,"hotttnesss":0.405080353,"terms":"western swing","latitude":40.58751,"name":"Roy Rogers","location":"Redding, CA","id":"ARHK7A51187FB411D8","termsFreq":0,"longitude":-122.39293},"song":{"title":"The Hills Of Old Wyomin\u0027"}},{"release":{"name":"JigSaw","id":813022},"artist":{"similar":"AR91JUV1187B9B0DE8","familiarity":0.292738053,"hotttnesss":0.177446304,"terms":"bebop","latitude":40.71455,"name":"George Schuller","location":"NY - New York City","id":"ARKAUWC122988EDAD8","termsFreq":0,"longitude":-74.00712},"song":{"title":"Distant Cousin"}},{"release":{"name":"I Apli Methodos Ton Trion","id":35970},"artist":{"similar":"ARLL0PV1187B9B5849","familiarity":0.37128168,"hotttnesss":0.302716272,"terms":"reggae","latitude":37.15735675013362,"name":"IMISKOUBRIA featuring Etsi De","location":"Not available","id":"AR4CL6I11C8A4158B4","termsFreq":0,"longitude":-63.933357868519515},"song":{"title":"Apoliome Re Giorgi (Feat. Etsi De)"}},{"release":{"name":"1964","id":123609},"artist":{"similar":"ARV0VRA1187FB5C825","familiarity":0.551311117,"hotttnesss":0.357663448,"terms":"chanson","latitude":48.39023,"name":"Miossec","location":"Brest, France","id":"ARW3V6T1187B9ACAC4","termsFreq":0,"longitude":-4.48622},"song":{"title":"DA(c)solA(c) Pour La PoussiA\"re"}},{"release":{"name":"Doo-Wop Classics Vol. 9 [Beltone Records]","id":236680},"artist":{"similar":"ARWEE501187B9A5945","familiarity":0.074959493,"hotttnesss":0.0,"terms":"chicago soul","latitude":37.15735675013362,"name":"Opals","location":"Not available","id":"ARXGVSB11F4C842CF3","termsFreq":0,"longitude":-63.933357868519515},"song":{"title":"Love"}},{"release":{"name":"Channel 10","id":395388},"artist":{"similar":"ARLZLAE11F50C48C40","familiarity":0.585680704,"hotttnesss":0.44062411,"terms":"gangster rap","latitude":37.15735675013362,"name":"Capone-N-Noreaga feat. Busta Rhymes and Ron Browz","location":"New York, NY [Queens]","id":"AR60ZZX1187FB52E29","termsFreq":0,"longitude":-63.933357868519515},"song":{"title":"Rotate"}},{"release":{"name":"Tell The People","id":14979},"artist":{"similar":"ARIRD6J1187FB5A98C","familiarity":0.587023739,"hotttnesss":0.383229026,"terms":"roots reggae","latitude":18.11526,"name":"Cornell Campbell","location":"Jamaica","id":"AR5TQ1T1187FB59492","termsFreq":0,"longitude":-77.27348},"song":{"title":"Got To Tell The People"}},{"release":{"name":"Zos Kia Cultus","id":116947},"artist":{"similar":"AR5Z3L01187B99C5A9","familiarity":0.84219335,"hotttnesss":0.550422825,"terms":"black metal","latitude":37.15735675013362,"name":"Behemoth","location":"POLAND","id":"AR1OBRC1187FB59AD4","termsFreq":0,"longitude":-63.933357868519515},"song":{"title":"Here And Beyond"}},{"release":{"name":"Locked \u0027n\u0027 Loaded","id":511272},"artist":{"similar":"AR0HQE41187B9A28D3","familiarity":0.506307966,"hotttnesss":0.429547122,"terms":"peace punk","latitude":37.15735675013362,"name":"Dickies","location":"Not available","id":"ARFONKU11F4C8431CC","termsFreq":0,"longitude":-63.933357868519515},"song":{"title":"Gigantor"}},{"release":{"name":"Faith","id":597519},"artist":{"similar":"ARMH4YI1187FB3F45E","familiarity":0.643544997,"hotttnesss":0.670106173,"terms":"country","latitude":37.15735675013362,"name":"Faith Hill","location":"Jackson, MS","id":"ARVNGA71187FB3C107","termsFreq":0,"longitude":-63.933357868519515},"song":{"title":"Better Days (Album Version)"}},{"release":{"name":"If They Want It","id":356091},"artist":{"similar":"ARG6CPM1187FB36594","familiarity":0.663995716,"hotttnesss":0.54000775,"terms":"gangster rap","latitude":37.15735675013362,"name":"DJ Clue / Fabolous Sport","location":"New York, NY [Queens]","id":"AR3FE581187FB3F90A","termsFreq":0,"longitude":-63.933357868519515},"song":{"title":"If They Want It"}},{"release":{"name":"The Greatest Hits","id":307550},"artist":{"similar":"ARHIC3Q1187B9B1773","familiarity":0.545866609,"hotttnesss":0.375362434,"terms":"hip hop","latitude":40.8079,"name":"Kool Moe Dee","location":"Harlem, New York, NY","id":"ARH0Z131187B9B69E9","termsFreq":0,"longitude":-73.9454},"song":{"title":"Death Blow"}},{"release":{"name":"Hard Candy","id":222538},"artist":{"similar":"AR8V1X71187B9B919B","familiarity":0.915823253,"hotttnesss":0.655283798,"terms":"dance pop","latitude":37.15735675013362,"name":"Madonna","location":"Bay City, MI","id":"ARBEOHF1187B9B044D","termsFreq":0,"longitude":-63.933357868519515},"song":{"title":"4 Minutes [Featuring Justin Timberlake And Timbaland] [Junkie XL Remix Edit]"}},{"release":{"name":"Apologize For Nothing","id":31407},"artist":{"similar":"AR5T4YC1187FB5915E","familiarity":0.588781959,"hotttnesss":0.415408952,"terms":"rap metal","latitude":38.41982,"name":"Bobaflex","location":"Huntington, WV","id":"ARSS4Y41187B9B0AC6","termsFreq":0,"longitude":-82.44537},"song":{"title":"Turn The Heat Up"}},{"release":{"name":"Demonica","id":748094},"artist":{"similar":"AR5Z3L01187B99C5A9","familiarity":0.84219335,"hotttnesss":0.550422825,"terms":"black metal","latitude":37.15735675013362,"name":"Behemoth","location":"POLAND","id":"AR1OBRC1187FB59AD4","termsFreq":0,"longitude":-63.933357868519515},"song":{"title":"Cursed Angel Of Doom (Previously Unreleased\u0026Re-Recorded Track)"}},{"release":{"name":"GetDarker Presents THIS IS DUBSTEP 2","id":783787},"artist":{"similar":"AREFFEC1187B98E12F","familiarity":0.70382389,"hotttnesss":0.464736061,"terms":"dubstep","latitude":51.50632,"name":"Benga","location":"London, United Kingdom","id":"ARNBIUE1187FB3E846","termsFreq":0,"longitude":-0.12714},"song":{"title":"The Future"}},{"release":{"name":"X.O. Experience","id":287223},"artist":{"similar":"ARLMHFV1187B9A3833","familiarity":0.536655656,"hotttnesss":0.0,"terms":"los angeles","latitude":37.15735675013362,"name":"Tha Liks","location":"Not available","id":"ARLLUSZ1187B98ACDC","termsFreq":0,"longitude":-63.933357868519515},"song":{"title":"40 OZ Quartet Part I"}},{"release":{"name":"Bandwagonesque","id":289148},"artist":{"similar":"AR07SOR1187FB46179","familiarity":0.684894723,"hotttnesss":0.511526435,"terms":"power pop","latitude":37.15735675013362,"name":"Teenage Fanclub","location":"Glasgow, Scotland","id":"ARHPPJK1187B9AC897","termsFreq":0,"longitude":-63.933357868519515},"song":{"title":"I Don\u0027t Know"}},{"release":{"name":"Urban Emotions","id":375397},"artist":{"similar":"ARMO54H1187FB52A77","familiarity":0.425072222,"hotttnesss":0.363452131,"terms":"cantonese pop","latitude":37.15735675013362,"name":"Hins Cheung","location":"Not available","id":"ARQ2PMX1187FB38D62","termsFreq":0,"longitude":-63.933357868519515},"song":{"title":"Xue Hua Chao"}},{"release":{"name":"The Secret Life Of The 4 Skins","id":610753},"artist":{"similar":"ARENGZO1187FB4CEB4","familiarity":0.528653456,"hotttnesss":0.0,"terms":"oi","latitude":37.15735675013362,"name":"4 Skins","location":"Not available","id":"ARQUFQK11F4C83C0D8","termsFreq":0,"longitude":-63.933357868519515},"song":{"title":"Chaos (Live - Bridgehouse Tapes)"}},{"release":{"name":"And Now...The Anita Kerr Orchestra!","id":627509},"artist":{"similar":"ARDY3451187B9A0226","familiarity":0.334167652,"hotttnesss":0.188030095,"terms":"country gospel","latitude":35.14968,"name":"Anita Kerr","location":"Memphis, TN","id":"AR95F611187B99CE1C","termsFreq":0,"longitude":-90.04892},"song":{"title":"Over The Rainbow"}},{"release":{"name":"Cricklewood Green","id":25971},"artist":{"similar":"ARJ1K7W1187FB3C1EB","familiarity":0.683388517,"hotttnesss":0.46311834,"terms":"blues-rock","latitude":52.94922,"name":"Ten Years After","location":"Nottingham, England","id":"AR8SRQ31187FB4D477","termsFreq":0,"longitude":-1.14392},"song":{"title":"Year 3_000 Blues (2002 Digital Remaster)"}},{"release":{"name":"3 Originals","id":307070},"artist":{"similar":"ARGCQH71187B9B6921","familiarity":0.772873274,"hotttnesss":0.473700501,"terms":"progressive rock","latitude":39.37413,"name":"Vangelis","location":"Volos, Greece","id":"ARMPRI31187FB4F7D9","termsFreq":0,"longitude":22.95775},"song":{"title":"3 + 3"}},{"release":{"name":"Bridging The Gap","id":13919},"artist":{"similar":"ARV4KO21187FB38008","familiarity":0.845601887,"hotttnesss":1.005941966,"terms":"hip hop","latitude":37.15735675013362,"name":"Black Eyed Peas","location":"Los Angeles, CA","id":"ARTDQRC1187FB4EFD4","termsFreq":0,"longitude":-63.933357868519515},"song":{"title":"Tell Your Momma Come"}},{"release":{"name":"When The Broken Hearted Love Again","id":815186},"artist":{"similar":"AR97YU21187FB55E7D","familiarity":0.505269396,"hotttnesss":0.0,"terms":"tribal house","latitude":43.0026,"name":"Danielle Bollinger","location":"Flint Michigan","id":"ARORFIN1187FB3BE5C","termsFreq":0,"longitude":-83.7826},"song":{"title":"Kiss the Sky"}},{"release":{"name":"Emotion","id":556971},"artist":{"similar":"ARMH4YI1187FB3F45E","familiarity":0.614870934,"hotttnesss":0.628246419,"terms":"country","latitude":37.15735675013362,"name":"Martina McBride","location":"Medicine Lodge, KS","id":"ARF3GX71187FB3EB66","termsFreq":0,"longitude":-63.933357868519515},"song":{"title":"Anything\u0027s Better Than Feelin\u0027 The Blues"}},{"release":{"name":"Dora The Explorer Party Favorites","id":482113},"artist":{"similar":"ARJS05S1187FB58F3A","familiarity":0.514414554,"hotttnesss":0.413757657,"terms":"goregrind","latitude":37.15735675013362,"name":"Dora The Explorer","location":"Not available","id":"AR3KXHI1187FB3A8BF","termsFreq":0,"longitude":-63.933357868519515},"song":{"title":"Mary Had A Little Lamb"}},{"release":{"name":"The North Side Benches","id":98397},"artist":{"similar":"ARR035B1187B99EF11","familiarity":0.519246036,"hotttnesss":0.427816989,"terms":"singer-songwriter","latitude":45.4215,"name":"Jim Bryson","location":"Ottawa, ON, Canada","id":"ARXRVY51187B99E98E","termsFreq":0,"longitude":-75.69189},"song":{"title":"Fleetwood"}},{"release":{"name":"Humungousfungusamongus","id":223469},"artist":{"similar":"ARLQEPZ1187B9B03D8","familiarity":0.515726299,"hotttnesss":0.31930004,"terms":"hardcore punk","latitude":37.15735675013362,"name":"Adrenalin O.D.","location":"Not available","id":"ARTPCQ41187B9AB42C","termsFreq":0,"longitude":-63.933357868519515},"song":{"title":"Anarchy in the UK (Sex Pistols) (Bonus Track)"}},{"release":{"name":"Ultra-Lounge / Bossa Novaville Volume Fourteen","id":29319},"artist":{"similar":"ARVO6FV1187B98C7A8","familiarity":0.226523067,"hotttnesss":0.0,"terms":"lounge music","latitude":37.15735675013362,"name":"Joe Graves \u0026 The Diggers","location":"Not available","id":"AR6742W1187B989AA9","termsFreq":0,"longitude":-63.933357868519515},"song":{"title":"Witchcraft (1997 Digital Remaster)"}},{"release":{"name":"Country Legend","id":653183},"artist":{"similar":"ARNG1DH1187FB3AB56","familiarity":0.610427725,"hotttnesss":0.438168226,"terms":"country rock","latitude":34.05349,"name":"Johnny Horton","location":"Los Angeles, CA","id":"ARTBFV61187FB3C250","termsFreq":0,"longitude":-118.24532},"song":{"title":"Go And Wash (Those Dirty Feet)"}},{"release":{"name":"October","id":278645},"artist":{"similar":"AR6LZB61187B9AF431","familiarity":0.843526543,"hotttnesss":0.825639111,"terms":"dance rock","latitude":37.15735675013362,"name":"U2","location":"Dublin, Ireland","id":"ARUJ5A41187FB3F5F1","termsFreq":0,"longitude":-63.933357868519515},"song":{"title":"October"}},{"release":{"name":"Brazil Classics 7: What\u0027s Happening in Pernambuco_ New Sounds of the Brazilian Northeast","id":219488},"artist":{"similar":"AR65UIK1187B9AC580","familiarity":0.622684167,"hotttnesss":0.373749549,"terms":"frevo","latitude":37.15735675013362,"name":"Eddie","location":"Not available","id":"AR0GGKI1187FB391D5","termsFreq":0,"longitude":-63.933357868519515},"song":{"title":"Pode Me Chamar"}},{"release":{"name":"Ascension To Tibet","id":517497},"artist":{"similar":"ARU0H141187B98F221","familiarity":0.510259829,"hotttnesss":0.363050247,"terms":"meditation","latitude":37.15735675013362,"name":"Dean Evenson","location":"Not available","id":"AR0GB821187B99FE96","termsFreq":0,"longitude":-63.933357868519515},"song":{"title":"Gateway"}},{"release":{"name":"OxygA\"ne 5: Le Vent","id":196895},"artist":{"similar":"ARGZIFN11F50C48FF1","familiarity":0.284220404,"hotttnesss":0.305849744,"terms":"fusion","latitude":37.15735675013362,"name":"Vincent Bruley","location":"Not available","id":"ARQXGWX11F50C49BC7","termsFreq":0,"longitude":-63.933357868519515},"song":{"title":"Souffle 2"}},{"release":{"name":"Ain\u0027t It Beautiful","id":258315},"artist":{"similar":"ARTAFV91187B9BA17C","familiarity":0.595660905,"hotttnesss":0.345241137,"terms":"hard rock","latitude":40.71455,"name":"ZO2","location":"NY - New York City","id":"ARWC3XN1187B9A8D82","termsFreq":0,"longitude":-74.00712},"song":{"title":"Comin\u0027 Home"}},{"release":{"name":"Reflections Of A Simple Man","id":453635},"artist":{"similar":"ARQDKV21187B992293","familiarity":0.048852903,"hotttnesss":0.0,"terms":"country gospel","latitude":37.15735675013362,"name":"Brent Lamb","location":"Not available","id":"AR9UPVA1187FB51260","termsFreq":0,"longitude":-63.933357868519515},"song":{"title":"One About Heaven"}},{"release":{"name":"Harder . . . Faster","id":143812},"artist":{"similar":"ARMXJIZ1187FB4D8A0","familiarity":0.656759788,"hotttnesss":0.4104772,"terms":"pop rock","latitude":44.64616,"name":"April Wine","location":"Halifax, Nova Scotia, Canada","id":"ARFKYG51187FB4CE41","termsFreq":0,"longitude":-63.57392},"song":{"title":"Babes In Arms"}},{"release":{"name":"Christmas Song","id":675941},"artist":{"similar":"AROSPS51187B9B481F","familiarity":0.705205403,"hotttnesss":0.653512933,"terms":"instrumental pop","latitude":41.26069,"name":"Mannheim Steamroller","location":"Omaha, NE","id":"ARNLE621187B98ECB5","termsFreq":0,"longitude":-95.93995},"song":{"title":"The Christmas Song"}},{"release":{"name":"Calle ilusion","id":409785},"artist":{"similar":"ARBHW3X1187B999013","familiarity":0.581475219,"hotttnesss":0.292662773,"terms":"latin pop","latitude":42.84751,"name":"Alex Ubago","location":"Vitoria, Spain","id":"AR05IU31187B9B9A1A","termsFreq":0,"longitude":-2.67973},"song":{"title":"20 horas de nada"}},{"release":{"name":"Season Selection - Summer","id":545565},"artist":{"similar":"ARHMIMO1241B9CEF76","familiarity":0.438177936,"hotttnesss":0.132312763,"terms":"vocal trance","latitude":37.15735675013362,"name":"Arctique","location":"Not available","id":"ARRZQZE1241B9CBFBB","termsFreq":0,"longitude":-63.933357868519515},"song":{"title":"Kyana"}},{"release":{"name":"Wild \u0026 Wicked","id":234871},"artist":{"similar":"ARSAIUN1187FB398D3","familiarity":0.601069052,"hotttnesss":0.359185993,"terms":"blues-rock","latitude":54.97938,"name":"Eric Burdon","location":"Walker-on-Tyne, England","id":"ARSPQ0H1187B999944","termsFreq":0,"longitude":-1.54508},"song":{"title":"Cum"}},{"release":{"name":"Vargstenen","id":263217},"artist":{"similar":"ARQQFUA1187B9B192B","familiarity":0.614261764,"hotttnesss":0.417413024,"terms":"viking metal","latitude":59.75952,"name":"MAY\u003dnegarm","location":"NorrtA$?lje","id":"ARVJ6541187B9A4C3E","termsFreq":0,"longitude":18.70249},"song":{"title":"Ur SjA$?lslig DAPd"}},{"release":{"name":"Fiorina","id":500539},"artist":{"similar":"AR656BL1187B98F7C8","familiarity":0.453912533,"hotttnesss":0.0,"terms":"chanson","latitude":37.15735675013362,"name":"Jean Corti","location":"Not available","id":"AR7Y8LR1187B991B6F","termsFreq":0,"longitude":-63.933357868519515},"song":{"title":"Madeleine (feat. Thomas Fersen)"}},{"release":{"name":"Greatest Hits","id":289807},"artist":{"similar":"ARKWI7M1187B9B7713","familiarity":0.934935267,"hotttnesss":0.787005469,"terms":"dance pop","latitude":40.71455,"name":"Mariah Carey","location":"New York, New York","id":"ARKSZW81187B9B695D","termsFreq":0,"longitude":-74.00712},"song":{"title":"Honey"}},{"release":{"name":"The Missing","id":291752},"artist":{"similar":"ARM0RY81187B9AF248","familiarity":0.679519208,"hotttnesss":0.491828704,"terms":"rock","latitude":34.05349,"name":"James Horner","location":"Los Angeles, CA","id":"ARBM57Q1187B9AF97C","termsFreq":0,"longitude":-118.24532},"song":{"title":"Rescue And Breakout"}},{"release":{"name":"E Lang Chuan Shou","id":46625},"artist":{"similar":"ARA8DDQ1187B9AE3A0","familiarity":0.54634647,"hotttnesss":0.413772173,"terms":"cantonese pop","latitude":37.15735675013362,"name":"Jacky Cheung","location":"Not available","id":"ARN3X4T1187B99EA39","termsFreq":0,"longitude":-63.933357868519515},"song":{"title":"Zhui Zhong"}},{"release":{"name":"Christmas Country","id":641414},"artist":{"similar":"ARTYGL51187B98F9D3","familiarity":0.481334748,"hotttnesss":0.369884223,"terms":"classic country","latitude":41.00461,"name":"Lacy J. Dalton","location":"Bloomsburg, PA","id":"ARL3X871187B996C0C","termsFreq":0,"longitude":-76.45327},"song":{"title":"Silver Bells"}},{"release":{"name":"I Am The Greatest!","id":286324},"artist":{"similar":"ARCNBPB1187FB4D19D","familiarity":0.485883206,"hotttnesss":0.28222148,"terms":"soft rock","latitude":40.14323,"name":"Cassius Clay","location":"New Jersey","id":"AR9K6SJ1187B989A32","termsFreq":0,"longitude":-74.72671},"song":{"title":"Round 7:  2138"}},{"release":{"name":"Serious Hits... Live!","id":41136},"artist":{"similar":"ARFWLXM1187B9B5EE5","familiarity":0.655921418,"hotttnesss":0.578301634,"terms":"soft rock","latitude":37.15735675013362,"name":"Phil Collins","location":"Chiswick, London, England","id":"AR9W3X91187FB3994C","termsFreq":0,"longitude":-63.933357868519515},"song":{"title":"You Can\u0027t Hurry Love (Live)"}},{"release":{"name":"Christmas Songbook","id":304405},"artist":{"similar":"AR0X3JJ1187FB3A9A7","familiarity":0.624252499,"hotttnesss":0.462190105,"terms":"country gospel","latitude":32.20049,"name":"Jim Reeves","location":"Galloway, Panola County, TX","id":"ARZVTZN1187FB579D4","termsFreq":0,"longitude":-94.35887},"song":{"title":"Jingle Bells"}},{"release":{"name":"The Very Best of Nestor Torres","id":600392},"artist":{"similar":"ARATU8J1187FB3EC93","familiarity":0.485921286,"hotttnesss":0.353156298,"terms":"latin jazz","latitude":25.72898,"name":"Nestor Torres","location":"Miami, FL","id":"ARXJSHW1187B9A2A52","termsFreq":0,"longitude":-80.23742},"song":{"title":"This Side Of Paradise"}},{"release":{"name":"The Best of The Baltimore Consort","id":321903},"artist":{"similar":"ARVZRHW11F4C83CF5F","familiarity":0.425723658,"hotttnesss":0.0,"terms":"early music","latitude":37.15735675013362,"name":"The Baltimore Consort","location":"Not available","id":"ARODOO01187FB44F4A","termsFreq":0,"longitude":-63.933357868519515},"song":{"title":"Howell\u0019s Delight"}},{"release":{"name":"I Can See You","id":199800},"artist":{"similar":"AR7Y6JX1187FB4D9B3","familiarity":0.731208047,"hotttnesss":0.547506775,"terms":"hardcore punk","latitude":34.05349,"name":"Black Flag","location":"Los Angeles, CA","id":"ARQ76LG1187B9ACD84","termsFreq":0,"longitude":-118.24532},"song":{"title":"Out Of This World"}},{"release":{"name":"Ultra-Lounge / A Bachelor In Paris - Volume Ten","id":28425},"artist":{"similar":"ARHLE1B1187B9955AA","familiarity":0.285210316,"hotttnesss":0.0,"terms":"space age pop","latitude":37.15735675013362,"name":"Henri Rene And His Orchestra","location":"Not available","id":"ARHCZHQ12086C11407","termsFreq":0,"longitude":-63.933357868519515},"song":{"title":"Petite Fleur (Instrumental) (1996 Digital Remaster)"}},{"release":{"name":"A Night At the Booty Bar","id":775996},"artist":{"similar":"ARJ4B7V1187FB4CB90","familiarity":0.518291646,"hotttnesss":0.375676929,"terms":"bass music","latitude":38.62774,"name":"Disco D feat. Lola Damone \u0026 Helluva","location":"St. Louis, MO","id":"AR0S0EO1187FB490BE","termsFreq":0,"longitude":-90.19951},"song":{"title":"Keys To The Whip (Straight Pimpin\u0027 Mix)"}},{"release":{"name":"Tipitina","id":458578},"artist":{"similar":"AR8ACFK1187B9B4063","familiarity":0.611771113,"hotttnesss":0.402054897,"terms":"louisiana blues","latitude":30.79062,"name":"Professor Longhair","location":"Bogalusa, LA","id":"ARA8O8L1187B9AD61D","termsFreq":0,"longitude":-89.8643},"song":{"title":"Hey Little Girl (1949)"}},{"release":{"name":"Same !@#$ Different Day","id":240644},"artist":{"similar":"AR92C2I1187FB4161C","familiarity":0.528308349,"hotttnesss":0.512197243,"terms":"hip hop","latitude":37.15735675013362,"name":"Lyrics Born","location":"Japan","id":"AR0JPOG1187FB37383","termsFreq":0,"longitude":-63.933357868519515},"song":{"title":"I Changed My Mind (DJ Spinna Remix)"}},{"release":{"name":"NOW Dance Anthems","id":614814},"artist":{"similar":"AR6LYGU1187FB57966","familiarity":0.611726027,"hotttnesss":0.361992288,"terms":"disco","latitude":37.15735675013362,"name":"Black Box","location":"Illinois","id":"AROWNZP1187FB3C028","termsFreq":0,"longitude":-63.933357868519515},"song":{"title":"Ride On Time (Original Version)"}},{"release":{"name":"Mutter Erde","id":816211},"artist":{"similar":"ARMLKKC1187FB56A27","familiarity":0.0,"hotttnesss":0.457072637,"terms":"ballad","latitude":37.15735675013362,"name":"Monika_ Wolfgang","location":"Greece","id":"ART9G811187FB55F2D","termsFreq":0,"longitude":-63.933357868519515},"song":{"title":"Mutter Erde"}},{"release":{"name":"Barnyard (OST)","id":549564},"artist":{"similar":"ARILUEI1187B98DB61","familiarity":0.746213857,"hotttnesss":0.476955046,"terms":"blues-rock","latitude":34.82353,"name":"North Mississippi Allstars","location":"Hernando, MS","id":"ARGLOWN1187B99C06D","termsFreq":0,"longitude":-89.99726},"song":{"title":"2StepN"}},{"release":{"name":"No borders","id":269267},"artist":{"similar":"ARMV5S61187FB55696","familiarity":0.411190826,"hotttnesss":0.28318261,"terms":"hip house","latitude":37.15735675013362,"name":"Time Factory","location":"Not available","id":"ARL47TY11C8A416938","termsFreq":0,"longitude":-63.933357868519515},"song":{"title":"Seize the day"}},{"release":{"name":"Warung Beach","id":691205},"artist":{"similar":"ARRTDSZ122BCFCD4D5","familiarity":0.703229577,"hotttnesss":0.433927838,"terms":"progressive house","latitude":37.15735675013362,"name":"John Digweed","location":"Hastings, England","id":"AROZNFA1187B99D367","termsFreq":0,"longitude":-63.933357868519515},"song":{"title":"Warung Beach"}},{"release":{"name":"Narrow Stairs","id":234342},"artist":{"similar":"AR8RC0V1187FB390D9","familiarity":0.83125365,"hotttnesss":0.601427204,"terms":"dream pop","latitude":37.15735675013362,"name":"Death Cab for Cutie","location":"Not available","id":"ARSPUJF1187B9A14B8","termsFreq":0,"longitude":-63.933357868519515},"song":{"title":"You Can Do Better Than Me (Album Version)"}},{"release":{"name":"Play Me: The Complete Uni Studio Recordings...Plus!","id":22419},"artist":{"similar":"ARVZDOM1187B9B49C9","familiarity":0.817635146,"hotttnesss":0.564005986,"terms":"soft rock","latitude":37.15735675013362,"name":"Neil Diamond","location":"Brooklyn, NY","id":"AR40GSU1187FB3AA01","termsFreq":0,"longitude":-63.933357868519515},"song":{"title":"Song Sung Blue"}},{"release":{"name":"These Are Good Times","id":457401},"artist":{"similar":"ARD8N0G1187B9B7B8B","familiarity":0.59994467,"hotttnesss":0.396800219,"terms":"post-grunge","latitude":42.33168,"name":"High Strung_ The","location":"Detroit, MI","id":"ARTE6AQ1187B9B2826","termsFreq":0,"longitude":-83.04792},"song":{"title":"Ain\u0027t That Something"}},{"release":{"name":"Le Temps Suspendu","id":200189},"artist":{"similar":"ARGZIFN11F50C48FF1","familiarity":0.284220404,"hotttnesss":0.305849744,"terms":"fusion","latitude":37.15735675013362,"name":"Vincent Bruley","location":"Not available","id":"ARQXGWX11F50C49BC7","termsFreq":0,"longitude":-63.933357868519515},"song":{"title":"Ombre Et LumiA\"re"}},{"release":{"name":"Cover the Earth","id":581079},"artist":{"similar":"ARA7WV51187FB532B0","familiarity":0.514064276,"hotttnesss":0.395627514,"terms":"hardcore punk","latitude":42.73383,"name":"The Meatmen","location":"Lansing, MI","id":"AR00A6H1187FB5402A","termsFreq":0,"longitude":-84.59334},"song":{"title":"Bad Reputation (Originally Performed by Thin Lizzy)"}},{"release":{"name":"My Angel Rocks Back and Forth","id":496675},"artist":{"similar":"ARY4M5Z1187FB45D98","familiarity":0.791761696,"hotttnesss":0.474428173,"terms":"electronic","latitude":37.15735675013362,"name":"Four Tet","location":"Not available","id":"AROKAO61187FB38105","termsFreq":0,"longitude":-63.933357868519515},"song":{"title":"I\u0027ve got Vilking in Me"}},{"release":{"name":"THAT GIRL","id":767896},"artist":{"similar":"AR7M2731187B99B2D0","familiarity":0.442024981,"hotttnesss":0.286032617,"terms":"country gospel","latitude":32.74863,"name":"Gary Morris","location":"Fort Worth, TX","id":"AR0NQD81187FB3AD13","termsFreq":0,"longitude":-97.32925},"song":{"title":"That Girl"}},{"release":{"name":"North Amerikay","id":261440},"artist":{"similar":"ARG5IOD1187FB37CFF","familiarity":0.034543186,"hotttnesss":0.0,"terms":"lullaby","latitude":37.15735675013362,"name":"Dale Russ / Finn MacGinty","location":"Not available","id":"ARDGFTD11F4C83C209","termsFreq":0,"longitude":-63.933357868519515},"song":{"title":"Hornpipes: The First of May / the New Century"}},{"release":{"name":"Turned Left But Don\u0027t Know If It Was Right","id":272680},"artist":{"similar":"ARM0TDJ1187FB4D197","familiarity":0.504410115,"hotttnesss":0.316315266,"terms":"pop rock","latitude":45.43811,"name":"Marygold","location":"Verona - Italy","id":"ARM9D241187FB4DB7D","termsFreq":0,"longitude":10.9915},"song":{"title":"Restcure"}},{"release":{"name":"Nemesis","id":203312},"artist":{"similar":"AR0YTWT1187FB3D62F","familiarity":0.615575255,"hotttnesss":0.435633741,"terms":"hard rock","latitude":52.88356,"name":"Axe","location":"Tyneside, England","id":"ARFKY7F1187FB3EFAC","termsFreq":0,"longitude":-1.97406},"song":{"title":"Midnight  (LP Version)"}},{"release":{"name":"ColecciA3n Diamante","id":63206},"artist":{"similar":"ARIEFPH1187FB5A45A","familiarity":0.571402429,"hotttnesss":0.384425906,"terms":"latin pop","latitude":37.15735675013362,"name":"Jose Luis Perales","location":"Not available","id":"ARWX7AO1187B9B91AA","termsFreq":0,"longitude":-63.933357868519515},"song":{"title":"Samaritanas Del Amor"}},{"release":{"name":"Sunshower","id":364290},"artist":{"similar":"ARATU8J1187FB3EC93","familiarity":0.498991673,"hotttnesss":0.325304674,"terms":"latin jazz","latitude":51.73569,"name":"Dave Valentin","location":"Chelmsford, England","id":"ARD6L7O1187B995ADA","termsFreq":0,"longitude":0.47791},"song":{"title":"Sunshower"}},{"release":{"name":"Supersized","id":42842},"artist":{"similar":"AR4J2SN1187B9A845E","familiarity":0.652801355,"hotttnesss":0.443098947,"terms":"dance pop","latitude":37.15735675013362,"name":"Milk Inc.","location":"Not available","id":"ARYG6CU1187FB3852B","termsFreq":0,"longitude":-63.933357868519515},"song":{"title":"Breakin\u0027"}},{"release":{"name":"The Open Door","id":441073},"artist":{"similar":"ARRHD2X1187B9B389E","familiarity":0.920959645,"hotttnesss":0.705757553,"terms":"alternative metal","latitude":37.15735675013362,"name":"Evanescence","location":"New York, NY","id":"ARVXU2X1187B9AE6D8","termsFreq":0,"longitude":-63.933357868519515},"song":{"title":"Good Enough"}},{"release":{"name":"Chithi Lae ke Kabootar Ja","id":476476},"artist":{"similar":"AR1BANJ1187B9B0B30","familiarity":0.363475535,"hotttnesss":0.0,"terms":"italian disco","latitude":37.15735675013362,"name":"Naseebo Lal","location":"Not available","id":"ARBY23A1187B9A82E4","termsFreq":0,"longitude":-63.933357868519515},"song":{"title":"Sahnu bhul ke Maha"}},{"release":{"name":"Ireland\u0027s Harvest","id":715453},"artist":{"similar":"AR7BJTZ1187FB5B32B","familiarity":0.314551133,"hotttnesss":0.0,"terms":"irish folk","latitude":37.15735675013362,"name":"Joe Derrane_ Frankie Gavin_ Brian McGrath","location":"Not available","id":"AR7QCFK1187B98D320","termsFreq":0,"longitude":-63.933357868519515},"song":{"title":"The Friendly Visit / The Stack of Wheat / The Gypsy Hornpipe"}},{"release":{"name":"Discografia Completa Vol. 9","id":747117},"artist":{"similar":"ARNAU9T1187B9B9D86","familiarity":0.490193634,"hotttnesss":0.377472507,"terms":"latin pop","latitude":37.15735675013362,"name":"Los Iracundos","location":"Not available","id":"ARYN8YT1187FB38396","termsFreq":0,"longitude":-63.933357868519515},"song":{"title":"Adios Pampa Mia"}},{"release":{"name":"Zhen Qing Liu Lu","id":46619},"artist":{"similar":"ARA8DDQ1187B9AE3A0","familiarity":0.54634647,"hotttnesss":0.413772173,"terms":"cantonese pop","latitude":37.15735675013362,"name":"Jacky Cheung","location":"Not available","id":"ARN3X4T1187B99EA39","termsFreq":0,"longitude":-63.933357868519515},"song":{"title":"Fen Shou Zong Yao Zai Yu Tian"}},{"release":{"name":"Casual","id":399933},"artist":{"similar":"ARV4KO21187FB38008","familiarity":0.581793766,"hotttnesss":0.401997543,"terms":"hip hop","latitude":37.15735675013362,"name":"Casual","location":"California - LA","id":"ARD7TVE1187B99BFB1","termsFreq":0,"longitude":-63.933357868519515},"song":{"title":"Bailando"}},{"release":{"name":"Phi","id":475640},"artist":{"similar":"ARS8UZS1187FB4CCC3","familiarity":0.596011504,"hotttnesss":0.350349304,"terms":"stoner rock","latitude":59.27074,"name":"Truckfighters","location":"Arebro","id":"AR0VR1O1187B9A0F1F","termsFreq":0,"longitude":15.21751},"song":{"title":"Traffic"}},{"release":{"name":"The Essential Connie Smith","id":295597},"artist":{"similar":"ARJOEGM1187B9B8F24","familiarity":0.496794628,"hotttnesss":0.365260893,"terms":"country gospel","latitude":41.68676,"name":"Connie Smith","location":"Elkhart, IN","id":"ARGUACZ1187FB3F35C","termsFreq":0,"longitude":-85.97567},"song":{"title":"Just One Time"}},{"release":{"name":"For The First Time On Planet Earth","id":660940},"artist":{"similar":"AREAEX91187B98DC01","familiarity":0.493926145,"hotttnesss":0.319626776,"terms":"ccm","latitude":37.15735675013362,"name":"Mark Lowry","location":"Not available","id":"ARKC83D1187B9AB367","termsFreq":0,"longitude":-63.933357868519515},"song":{"title":"His Love Says (Album)"}},{"release":{"name":"Right On!","id":17131},"artist":{"similar":"ARV6NMP1187FB55F38","familiarity":0.484732016,"hotttnesss":0.332755068,"terms":"rare groove","latitude":39.10295,"name":"Eugene McDaniels","location":"Kansas City, MO","id":"ARHWO3N1187B98F196","termsFreq":0,"longitude":-94.58306},"song":{"title":"Headless Heroes (LP Version)"}},{"release":{"name":"Beyond the Permafrost","id":632807},"artist":{"similar":"ARS0X0U1187FB56A9F","familiarity":0.68955969,"hotttnesss":0.529039572,"terms":"speed metal","latitude":37.15735675013362,"name":"Skeletonwitch","location":"Not available","id":"ARH8B5X1187FB3B6C0","termsFreq":0,"longitude":-63.933357868519515},"song":{"title":"Within My Blood"}},{"release":{"name":"Petrafied! (Very Best Of Petra","id":64418},"artist":{"similar":"AR87P0Q1187B989ADF","familiarity":0.798158656,"hotttnesss":0.475393063,"terms":"ccm","latitude":37.15735675013362,"name":"Petra","location":"Fort Wayne, Indiana","id":"AR2KSTE1187FB57A36","termsFreq":0,"longitude":-63.933357868519515},"song":{"title":"More Power To Ya"}},{"release":{"name":"Happy Day Collection - Fonzie\u0027s Women","id":727018},"artist":{"similar":"ARE7OOV1187B9B8800","familiarity":0.770814367,"hotttnesss":0.47726039,"terms":"vocal jazz","latitude":46.91008,"name":"Peggy Lee","location":"Jamestown, ND","id":"ARSC6WR1187FB40B18","termsFreq":0,"longitude":-98.70853},"song":{"title":"Mr. Wonderful"}},{"release":{"name":"Music in My Soul","id":314435},"artist":{"similar":"ARVC9W21187B99354B","familiarity":0.593119272,"hotttnesss":0.37300074,"terms":"neo soul","latitude":37.15735675013362,"name":"Leigh Jones","location":"Not available","id":"ARZHUJU1187FB51176","termsFreq":0,"longitude":-63.933357868519515},"song":{"title":"Same Game"}},{"release":{"name":"Cameo Parkway 1957-1967","id":717822},"artist":{"similar":"ARV03D41187FB413E8","familiarity":0.543161423,"hotttnesss":0.290393914,"terms":"chicago soul","latitude":37.15735675013362,"name":"The Five Stairsteps","location":"Chicago, IL","id":"ARZE0AG1187FB5BF61","termsFreq":0,"longitude":-63.933357868519515},"song":{"title":"Danger! She\u0027s A Stranger"}},{"release":{"name":"Lo Mejor De Roberto Torres / Vol. II","id":257997},"artist":{"similar":"AR1PNWN1187FB4A404","familiarity":0.482356043,"hotttnesss":0.350078579,"terms":"salsa","latitude":37.15735675013362,"name":"Roberto Torres","location":"Not available","id":"AR6YDKV1187B989230","termsFreq":0,"longitude":-63.933357868519515},"song":{"title":"Decima Del Tiempo De Antes"}},{"release":{"name":"Body Snatcher\u0027s","id":304239},"artist":{"similar":"ARHCGRF11F50C4F738","familiarity":0.845373304,"hotttnesss":0.534429714,"terms":"rap","latitude":37.15735675013362,"name":"G Unit ft. 50 Cent_ Lloyd Banks \u0026 Tony Yayo","location":"ABD","id":"ARRXG5Y1187B9AA016","termsFreq":0,"longitude":-63.933357868519515},"song":{"title":"Rider 4 Real"}},{"release":{"name":"Is This Room Getting Smaller?","id":571600},"artist":{"similar":"AR0TG261187B99AC74","familiarity":0.596642396,"hotttnesss":0.33810401,"terms":"post-grunge","latitude":34.05349,"name":"Onesidezero","location":"Los Angeles, CA","id":"AREW7CO1187B9A1B0D","termsFreq":0,"longitude":-118.24532},"song":{"title":"Eight (Album Version)"}},{"release":{"name":"Wrapped Up In A Five Pound Note","id":88446},"artist":{"similar":"ARB091D1187FB50FA0","familiarity":0.516489517,"hotttnesss":0.132946011,"terms":"chanson francaise","latitude":37.15735675013362,"name":"Dictafone","location":"Not available","id":"AREWYHV1241B9C696D","termsFreq":0,"longitude":-63.933357868519515},"song":{"title":"Distractions"}},{"release":{"name":"Jazz Gillum Vol. 1 1936-1938","id":174682},"artist":{"similar":"ARFGMSJ122988ED7A0","familiarity":0.362800142,"hotttnesss":0.282286406,"terms":"chicago blues","latitude":33.45081,"name":"Jazz Gillum","location":"Indianola, MS","id":"ARW4AGO1187FB4F107","termsFreq":0,"longitude":-90.645},"song":{"title":"Boar Hog Blues"}},{"release":{"name":"Sexy Fountain Noise","id":321191},"artist":{"similar":"ARRPM5V1187B9B8152","familiarity":0.494880755,"hotttnesss":0.159349705,"terms":"free improvisation","latitude":37.15735675013362,"name":"Lexie Mountain Boys","location":"Not available","id":"ARM1ELZ1187FB49FC1","termsFreq":0,"longitude":-63.933357868519515},"song":{"title":"Where We Are From"}},{"release":{"name":"Vinyl Replica: El Milagro Argentino","id":509686},"artist":{"similar":"AR5U53D1187FB37654","familiarity":0.610330728,"hotttnesss":0.407821565,"terms":"cumbia","latitude":37.15735675013362,"name":"Los AutA(c)nticos Decadentes","location":"Not available","id":"ART6QCS1187FB40CBD","termsFreq":0,"longitude":-63.933357868519515},"song":{"title":"El Jorobadito"}},{"release":{"name":"The Very Best Of","id":26319},"artist":{"similar":"AR35YUO1187B9AD83E","familiarity":0.663229688,"hotttnesss":0.402167048,"terms":"blue-eyed soul","latitude":54.97791,"name":"Lighthouse Family","location":"Newcastle, England","id":"AR37XMN1187B9AC408","termsFreq":0,"longitude":-1.61237},"song":{"title":"Ocean Drive"}},{"release":{"name":"Getting Ready... (World)","id":111872},"artist":{"similar":"ARGRWEZ1187B9AC382","familiarity":0.609636698,"hotttnesss":0.382593001,"terms":"texas blues","latitude":37.15735675013362,"name":"Freddie King","location":"Gilmer, TX","id":"ARRT66G1187FB3DDF9","termsFreq":0,"longitude":-63.933357868519515},"song":{"title":"Five Long Years"}},{"release":{"name":"Out Of Business","id":47389},"artist":{"similar":"ARM2EJV1187B98EA13","familiarity":0.698291624,"hotttnesss":0.453850265,"terms":"hip hop","latitude":37.15735675013362,"name":"EPMD","location":"allentown Pennsylvania USA","id":"ARSQDUN1187B98D7D7","termsFreq":0,"longitude":-63.933357868519515},"song":{"title":"Check 1_2"}},{"release":{"name":"X-Filez V.3: The Madman Era","id":816512},"artist":{"similar":"ARTWSZX1187B9AEA22","familiarity":0.624573379,"hotttnesss":0.43870167,"terms":"gangster rap","latitude":37.15735675013362,"name":"X-Raided featuring Teddy Bear_ Big Pook_ T-Nutty","location":"Not available","id":"AR32JLC1187B9946AF","termsFreq":0,"longitude":-63.933357868519515},"song":{"title":"Thug Love"}},{"release":{"name":"These Are Good Times","id":457401},"artist":{"similar":"ARD8N0G1187B9B7B8B","familiarity":0.59994467,"hotttnesss":0.396800219,"terms":"post-grunge","latitude":42.33168,"name":"High Strung_ The","location":"Detroit, MI","id":"ARTE6AQ1187B9B2826","termsFreq":0,"longitude":-83.04792},"song":{"title":"Show a Sign of Life"}},{"release":{"name":"Where You Are","id":610646},"artist":{"similar":"AR943B51187B9A38E2","familiarity":0.634084945,"hotttnesss":0.380133079,"terms":"post-grunge","latitude":37.15735675013362,"name":"Socialburn","location":"Not available","id":"ARGA5RF1187FB5C7EB","termsFreq":0,"longitude":-63.933357868519515},"song":{"title":"Everyone (LP Version)"}},{"release":{"name":"Country In My Pillow","id":681216},"artist":{"similar":"AR223M11187B9ADDD6","familiarity":0.65129754,"hotttnesss":0.417870578,"terms":"honky tonk","latitude":32.74863,"name":"Roger Miller","location":"Fort Worth, TX","id":"AR91GW21187FB4F642","termsFreq":0,"longitude":-97.32925},"song":{"title":"My Pillow"}},{"release":{"name":"Backline Volume 46","id":443075},"artist":{"similar":"ARGYVSP1187FB445BC","familiarity":0.449070899,"hotttnesss":0.227135108,"terms":"brill building pop","latitude":37.15735675013362,"name":"Sal Mineo","location":"Not available","id":"ARAJRG51187B9B4BEF","termsFreq":0,"longitude":-63.933357868519515},"song":{"title":"Start Moving"}},{"release":{"name":"My Baby Left Me","id":379741},"artist":{"similar":"ARR7YYN1187FB5C015","familiarity":0.611942956,"hotttnesss":0.403197978,"terms":"texas blues","latitude":33.01158,"name":"T-Bone Walker","location":"Linden, TX","id":"AR8Q4RZ1187FB46BDC","termsFreq":0,"longitude":-94.365},"song":{"title":"Mean Old World Blues"}},{"release":{"name":"Naar Vi DA,de Rocker","id":732480},"artist":{"similar":"ARCJZIJ1187FB5C01F","familiarity":0.48040197,"hotttnesss":0.392325283,"terms":"blues","latitude":59.91228,"name":"Black Debbath","location":"Oslo, Norway","id":"AR93K7R1187B9AC92A","termsFreq":0,"longitude":10.74998},"song":{"title":"Ville Eyolf"}},{"release":{"name":"Stille Nacht","id":683558},"artist":{"similar":"ARS4HVG1187B98FBAD","familiarity":0.42562724,"hotttnesss":0.0,"terms":"guitar","latitude":37.15735675013362,"name":"Thomas Battenstein","location":"Not available","id":"ARWXHRS1241B9C7A1E","termsFreq":0,"longitude":-63.933357868519515},"song":{"title":"Macht hoch die TA1/4r"}},{"release":{"name":"Satisfaction Is The Death Of Desire","id":128084},"artist":{"similar":"ARWMY7E1187B9B7049","familiarity":0.832757431,"hotttnesss":0.546383748,"terms":"hardcore punk","latitude":41.30711,"name":"Hatebreed","location":"New Haven, CT","id":"ARPKATM1187B9B76E6","termsFreq":0,"longitude":-72.92496},"song":{"title":"Mark My Words (Album Version)"}},{"release":{"name":"Greatest Hits","id":663237},"artist":{"similar":"ARHPB9X1187B99E0A9","familiarity":0.436660213,"hotttnesss":0.299120015,"terms":"new beat","latitude":37.15735675013362,"name":"Confetti\u0027s","location":"Not available","id":"ARSKDV01187B98A619","termsFreq":0,"longitude":-63.933357868519515},"song":{"title":"C Day (Maxi Club Version)"}},{"release":{"name":"Hattie B\u0027s Daughter","id":249009},"artist":{"similar":"ARV8DLF1187B9A4C7C","familiarity":0.418282514,"hotttnesss":0.320345629,"terms":"blues","latitude":37.15735675013362,"name":"Dorothy Norwood","location":"Not available","id":"ARF3PG41187FB4B0B4","termsFreq":0,"longitude":-63.933357868519515},"song":{"title":"Grace And Mercy Part II"}},{"release":{"name":"Ultimate Collection","id":340376},"artist":{"similar":"ARQNR1G1187B9AE88F","familiarity":0.582238344,"hotttnesss":0.449052575,"terms":"rock \u0027n roll","latitude":37.15735675013362,"name":"Small Faces","location":"Not available","id":"AROCBZZ11E2835D652","termsFreq":0,"longitude":-63.933357868519515},"song":{"title":"Itchycoo Park"}},{"release":{"name":"Life","id":644813},"artist":{"similar":"AR6HPLV1187FB4A1BC","familiarity":0.427047571,"hotttnesss":0.154254354,"terms":"hardstyle","latitude":37.15735675013362,"name":"Vinylbase","location":"Not available","id":"AR3N54Z119B86681C9","termsFreq":0,"longitude":-63.933357868519515},"song":{"title":"Life"}},{"release":{"name":"Dialogue (The Rudy Van Gelder Edition)","id":107008},"artist":{"similar":"AR5FGSX1187B9B5454","familiarity":0.570900104,"hotttnesss":0.393292711,"terms":"latin jazz","latitude":34.05349,"name":"Bobby Hutcherson","location":"Los Angeles, CA","id":"ARU9Q5Q1187FB3D6EB","termsFreq":0,"longitude":-118.24532},"song":{"title":"Les Noirs Marchant (Rudy Van Gelder 24Bit Mastering) (2002 Digital Remaster)"}},{"release":{"name":"Back In The Saddle Again","id":572262},"artist":{"similar":"ARQUS8G1187FB46C97","familiarity":0.583646435,"hotttnesss":0.41458957,"terms":"classic country","latitude":33.46725,"name":"Gene Autry","location":"Tioga Springs, TX","id":"ARZ1PTN1187B9967D9","termsFreq":0,"longitude":-96.91393},"song":{"title":"Blueberry Hill"}},{"release":{"name":"Belive In Soul E.P.","id":535814},"artist":{"similar":"ARQH8UW1187B9B81E8","familiarity":0.443849187,"hotttnesss":0.269749925,"terms":"dirty rap","latitude":37.15735675013362,"name":"Mr. De\u0027","location":"Not available","id":"ARXKRVF11E2835D266","termsFreq":0,"longitude":-63.933357868519515},"song":{"title":"Please Belive It"}},{"release":{"name":"Mozart - Sacred Choral Works","id":151162},"artist":{"similar":"ARLGNGC12086C13881","familiarity":0.028237062,"hotttnesss":0.226131073,"terms":"los angeles","latitude":37.15735675013362,"name":"Patrizia Pace/Waltraud Meier/Frank Lopardo/James Morris/Swedish Radio Choir/Stockholm Chamber Choir/Berliner Philharmoniker/Riccardo Muti","location":"Not available","id":"ARV7J871187FB4F8B6","termsFreq":0,"longitude":-63.933357868519515},"song":{"title":"Mass No. 19 in D minor_ \u0027Requiem\u0027 K626: Lacrimosa"}},{"release":{"name":"Jerusalem Homecoming","id":64628},"artist":{"similar":"ARPY3PZ1187FB45623","familiarity":0.426882762,"hotttnesss":0.333303418,"terms":"country gospel","latitude":37.15735675013362,"name":"Bill \u0026 Gloria Gaither","location":"Not available","id":"ARBB58Y1187B9B621B","termsFreq":0,"longitude":-63.933357868519515},"song":{"title":"I Walked Today Where Jesus Walked"}},{"release":{"name":"A Fever You Can\u0027t Sweat Out","id":30216},"artist":{"similar":"AR0WBBL1187FB4677D","familiarity":0.842368944,"hotttnesss":0.604655128,"terms":"pop punk","latitude":37.15735675013362,"name":"Panic! At The Disco","location":"Las Vegas, NV","id":"ARL6FF81187FB5A916","termsFreq":0,"longitude":-63.933357868519515},"song":{"title":"I Constantly Thank God For Esteban (Album Version)"}},{"release":{"name":"The Dizzy Gillespie Alumni All-Stars: Dizzy\u0027s 80th Birthday Party","id":619638},"artist":{"similar":"ARIIJGR11F4C83ECE9","familiarity":0.466331054,"hotttnesss":0.33274977,"terms":"irish folk","latitude":37.15735675013362,"name":"The Fureys","location":"Not available","id":"ARFWZZD1187FB561F9","termsFreq":0,"longitude":-63.933357868519515},"song":{"title":"Con Alma"}},{"release":{"name":"The Very Best of Nestor Torres","id":600392},"artist":{"similar":"ARATU8J1187FB3EC93","familiarity":0.485921286,"hotttnesss":0.353156298,"terms":"latin jazz","latitude":25.72898,"name":"Nestor Torres","location":"Miami, FL","id":"ARXJSHW1187B9A2A52","termsFreq":0,"longitude":-80.23742},"song":{"title":"Spanish Grease"}},{"release":{"name":"Birmingham Jubilee Singers Vol. 2 (1927-1930)","id":174801},"artist":{"similar":"ARGA5GS1187FB58F86","familiarity":0.338370155,"hotttnesss":0.0,"terms":"gospel","latitude":37.15735675013362,"name":"Birmingham Jubilee Singers","location":"Not available","id":"ARJSGPI1241B9C8855","termsFreq":0,"longitude":-63.933357868519515},"song":{"title":"Queen Street Rag (144826)"}},{"release":{"name":"Latin Spirits","id":459869},"artist":{"similar":"AR1N6N61187FB4E25E","familiarity":0.577228503,"hotttnesss":0.373552391,"terms":"latin jazz","latitude":27.53092,"name":"Poncho Sanchez","location":"Laredo, TX","id":"ARYFXQ21187FB4DAEF","termsFreq":0,"longitude":-99.502},"song":{"title":"Ju Ju"}},{"release":{"name":"Artificial Intelligence","id":105865},"artist":{"similar":"AR3I2HS1187B9AC3BB","familiarity":0.749317801,"hotttnesss":0.481655862,"terms":"experimental rock","latitude":37.15735675013362,"name":"John Cale","location":"Garnant, Wales","id":"ARUI8651187B9ACF52","termsFreq":0,"longitude":-63.933357868519515},"song":{"title":"Song Of The Valley"}},{"release":{"name":"The Spanish Guitar - The Top 10","id":36663},"artist":{"similar":"ARNEM631187B9B54EE","familiarity":0.431966635,"hotttnesss":0.341714731,"terms":"classical","latitude":37.15735675013362,"name":"Eduardo Fernandez","location":"Not available","id":"ARIZLHQ1187B9A18C4","termsFreq":0,"longitude":-63.933357868519515},"song":{"title":"Estudio"}},{"release":{"name":"16 Exitos De Los Mejores Trios Mexicanos","id":517142},"artist":{"similar":"AR06M3F1187FB38BED","familiarity":0.625067009,"hotttnesss":0.401098465,"terms":"delta blues","latitude":37.15735675013362,"name":"Los Cisnes","location":"Teoc, MS","id":"ARHNCQ31187B9915DC","termsFreq":0,"longitude":-63.933357868519515},"song":{"title":"Orgullo"}},{"release":{"name":"The King\u0027s Harmoniers","id":480973},"artist":{"similar":"ARPY3PZ1187FB45623","familiarity":0.382308283,"hotttnesss":0.283562596,"terms":"country gospel","latitude":37.20897,"name":"The Jordanaires","location":"Springfield, MO","id":"AR358YS1187FB44A29","termsFreq":0,"longitude":-93.29156},"song":{"title":"You Gave Me A Mountain"}},{"release":{"name":"Still Making History","id":323348},"artist":{"similar":"AR6XEHV1187FB43D1A","familiarity":0.621616922,"hotttnesss":0.448459768,"terms":"blues-rock","latitude":44.81187,"name":"Ana Popovic","location":"Belgrade, Yugoslavia","id":"ARW2DG51187B9A170F","termsFreq":0,"longitude":20.46414},"song":{"title":"Shadow After Dark"}},{"release":{"name":"Tout ira trA\"s bien","id":654064},"artist":{"similar":"AR3CJOA1187B9A3528","familiarity":0.27790004,"hotttnesss":0.116156134,"terms":"freakbeat","latitude":37.15735675013362,"name":"Les Hou-Lops","location":"Not available","id":"ARRESZG1187B9A3FBF","termsFreq":0,"longitude":-63.933357868519515},"song":{"title":"FauchA(c)"}},{"release":{"name":"Odds \u0026 Evens","id":174614},"artist":{"similar":"AR0CANF1187B9AF35F","familiarity":0.596172381,"hotttnesss":0.35515545,"terms":"hip hop","latitude":37.15735675013362,"name":"Defari","location":"Not available","id":"AR7AYQG1187B994B3F","termsFreq":0,"longitude":-63.933357868519515},"song":{"title":"Xtra Thump (Featuring Tash from Tha Alkaholiks)"}},{"release":{"name":"Nah No Mercy - The Warlord Scrolls","id":138140},"artist":{"similar":"ARVUN5F1187FB4CCC7","familiarity":0.693287839,"hotttnesss":0.393274491,"terms":"dancehall","latitude":37.15735675013362,"name":"Bounty Killer","location":"Kingston, Jamaica","id":"ARMPQIE1187FB3D4EB","termsFreq":0,"longitude":-63.933357868519515},"song":{"title":"Cellular Phone"}},{"release":{"name":"Exile On Main St","id":884},"artist":{"similar":"ARSAIUN1187FB398D3","familiarity":0.814829656,"hotttnesss":0.735765693,"terms":"blues","latitude":51.50632,"name":"The Rolling Stones","location":"London, England","id":"ARFCUN31187B9AD578","termsFreq":0,"longitude":-0.12714},"song":{"title":"Stop Breaking Down (1994 Digital Remaster)"}},{"release":{"name":"Dora The Explorer Dance Fiesta!","id":314962},"artist":{"similar":"ARJS05S1187FB58F3A","familiarity":0.514414554,"hotttnesss":0.413757657,"terms":"goregrind","latitude":37.15735675013362,"name":"Dora The Explorer","location":"Not available","id":"AR3KXHI1187FB3A8BF","termsFreq":0,"longitude":-63.933357868519515},"song":{"title":"Limbo Rock"}},{"release":{"name":"Reunion","id":550685},"artist":{"similar":"ARPY3PZ1187FB45623","familiarity":0.426882762,"hotttnesss":0.333303418,"terms":"country gospel","latitude":37.15735675013362,"name":"Bill \u0026 Gloria Gaither","location":"Not available","id":"ARBB58Y1187B9B621B","termsFreq":0,"longitude":-63.933357868519515},"song":{"title":"I Never Shall Forget That Day (Reunion Album Version)"}},{"release":{"name":"Strictly One Drop","id":540002},"artist":{"similar":"ARL5BEN1187B98E4D9","familiarity":0.687483205,"hotttnesss":0.514206403,"terms":"reggae","latitude":37.15735675013362,"name":"Gyptian","location":"Not available","id":"AR3TITY1187B99E790","termsFreq":0,"longitude":-63.933357868519515},"song":{"title":"What Are You Fighting For"}},{"release":{"name":"And... R\u0026B was born","id":369893},"artist":{"similar":"AR8ACFK1187B9B4063","familiarity":0.611771113,"hotttnesss":0.402054897,"terms":"louisiana blues","latitude":30.79062,"name":"Professor Longhair","location":"Bogalusa, LA","id":"ARA8O8L1187B9AD61D","termsFreq":0,"longitude":-89.8643},"song":{"title":"Bald Head"}},{"release":{"name":"Sun Shower","id":135138},"artist":{"similar":"ARV4KO21187FB38008","familiarity":0.618002715,"hotttnesss":0.349476327,"terms":"alternative hip hop","latitude":37.15735675013362,"name":"Busdriver","location":"Not available","id":"ARU9KWP1187B98B2A7","termsFreq":0,"longitude":-63.933357868519515},"song":{"title":"Sun Shower - Cadence Weapon Remix (Cd)"}},{"release":{"name":"At The BBC","id":804766},"artist":{"similar":"ARUNKLR1187B9B5DFC","familiarity":0.755566398,"hotttnesss":0.464186402,"terms":"blue-eyed soul","latitude":37.15735675013362,"name":"Robert Palmer","location":"Batley, England","id":"AR4BDNG1187FB44870","termsFreq":0,"longitude":-63.933357868519515},"song":{"title":"Some Guys Have All The Luck"}},{"release":{"name":"Everybody\u0027s Fine","id":694058},"artist":{"similar":"ARU52PB1187FB58E46","familiarity":0.613464932,"hotttnesss":0.412115554,"terms":"symphony","latitude":37.15735675013362,"name":"Dario Marianelli","location":"Not available","id":"ARQ3VBJ1187FB3FE55","termsFreq":0,"longitude":-63.933357868519515},"song":{"title":"Why Did You All Lie to Me?"}},{"release":{"name":"Trick Or Treat - Original Motion Picture Soundtrack  Featuring FASTWAY","id":283875},"artist":{"similar":"ARHTAPO1187FB5AADE","familiarity":0.568897347,"hotttnesss":0.374986646,"terms":"heavy metal","latitude":37.15735675013362,"name":"Fastway","location":"Not available","id":"ARZ4UWR1187FB41898","termsFreq":0,"longitude":-63.933357868519515},"song":{"title":"Heft*"}},{"release":{"name":"Medrano","id":551529},"artist":{"similar":"AR6AEP81187FB527F5","familiarity":0.411939008,"hotttnesss":0.0,"terms":"chanson","latitude":37.15735675013362,"name":"Alain Turban","location":"Not available","id":"ARSKATF1187B98A622","termsFreq":0,"longitude":-63.933357868519515},"song":{"title":"L\u0027Homme au trapA\"ze volant"}},{"release":{"name":"In Ghost Colours","id":265372},"artist":{"similar":"ARZQHQK1187FB456DA","familiarity":0.769944259,"hotttnesss":0.536173552,"terms":"alternative dance","latitude":37.15735675013362,"name":"Cut Copy","location":"Melbourne, Australia","id":"ARWD3OC1187FB3A666","termsFreq":0,"longitude":-63.933357868519515},"song":{"title":"Cold Youth"}},{"release":{"name":"Man-made","id":552550},"artist":{"similar":"AR07SOR1187FB46179","familiarity":0.684894723,"hotttnesss":0.511526435,"terms":"power pop","latitude":37.15735675013362,"name":"Teenage Fanclub","location":"Glasgow, Scotland","id":"ARHPPJK1187B9AC897","termsFreq":0,"longitude":-63.933357868519515},"song":{"title":"It\u0027s All In My Mind"}},{"release":{"name":"Whisper To The Wild Water","id":6945},"artist":{"similar":"AR1UUWB1187B997F2F","familiarity":0.576053723,"hotttnesss":0.385878058,"terms":"irish folk","latitude":37.15735675013362,"name":"Maire Brennan","location":"Not available","id":"ARHOCKY11E2835D7CB","termsFreq":0,"longitude":-63.933357868519515},"song":{"title":"Bi Thus A Mo Shuile (LP Version)"}},{"release":{"name":"Valentin Alsina","id":500856},"artist":{"similar":"AR68A0X1187FB36164","familiarity":0.591846288,"hotttnesss":0.37246298,"terms":"skate punk","latitude":37.15735675013362,"name":"2 Minutos","location":"Not available","id":"ARO0R521187B98A2D1","termsFreq":0,"longitude":-63.933357868519515},"song":{"title":"14 Botellas"}},{"release":{"name":"Paul Stanley","id":47036},"artist":{"similar":"AREYM1B1187FB4F87D","familiarity":0.588382122,"hotttnesss":0.38097955,"terms":"hard rock","latitude":40.7038,"name":"Paul Stanley","location":"Queens, NY","id":"AREUUVW1187B99A697","termsFreq":0,"longitude":-73.83168},"song":{"title":"Move On"}},{"release":{"name":"Change Of Season","id":296945},"artist":{"similar":"AR4U91L1187B9A2401","familiarity":0.664924362,"hotttnesss":0.496381146,"terms":"pop rock","latitude":37.15735675013362,"name":"Daryl Hall \u0026 John Oates","location":"Philadelphia, Pennsylvania","id":"ARN0DMU1187FB5B63A","termsFreq":0,"longitude":-63.933357868519515},"song":{"title":"Only Love"}},{"release":{"name":"Chouans!","id":686055},"artist":{"similar":"ARWNRBH1187B9B7E68","familiarity":0.567800601,"hotttnesss":0.37352717,"terms":"smooth jazz","latitude":37.15735675013362,"name":"Georges Delerue","location":"Not available","id":"ARFAKQ01187B990163","termsFreq":0,"longitude":-63.933357868519515},"song":{"title":"AurA\"le et CA(c)line"}},{"release":{"name":"Celtic Twilight 6","id":483913},"artist":{"similar":"ARERDYL1187FB56BB3","familiarity":0.444205744,"hotttnesss":0.33014018,"terms":"irish folk","latitude":37.15735675013362,"name":"Liam O\u0027Flynn","location":"Not available","id":"AR74J3U1187FB5CDDB","termsFreq":0,"longitude":-63.933357868519515},"song":{"title":"Romeo\u0027s Exile"}},{"release":{"name":"Soul Searchin\u0027 Part 2","id":648927},"artist":{"similar":"ARLHURZ1187FB54C71","familiarity":0.515310233,"hotttnesss":0.260796778,"terms":"chicago house","latitude":37.15735675013362,"name":"DJ Spinn","location":"Not available","id":"ARPOPBQ11F4C83D36D","termsFreq":0,"longitude":-63.933357868519515},"song":{"title":"Times Up"}},{"release":{"name":"Not Lonesome Anymore","id":227292},"artist":{"similar":"ARYYD9K1187FB44C76","familiarity":0.302396562,"hotttnesss":0.267067841,"terms":"zydeco","latitude":37.15735675013362,"name":"The California Cajun Orchestra","location":"Not available","id":"ARKN6PC1187B98A4D0","termsFreq":0,"longitude":-63.933357868519515},"song":{"title":"Lake Charles Two-Step"}},{"release":{"name":"I Put a Spell on You: The Best Of","id":95340},"artist":{"similar":"ARSAIUN1187FB398D3","familiarity":0.719492291,"hotttnesss":0.467565441,"terms":"rock \u0027n roll","latitude":37.15735675013362,"name":"Screamin\u0027 Jay Hawkins","location":"Cleveland, OH","id":"ARWVOHH1187FB5974B","termsFreq":0,"longitude":-63.933357868519515},"song":{"title":"What\u0027s Gonna Happen On the 8th Day"}},{"release":{"name":"Below \u0026 Beyond","id":769747},"artist":{"similar":"ARJG34V1187FB3AC14","familiarity":0.522423829,"hotttnesss":0.41759188,"terms":"stoner metal","latitude":37.15735675013362,"name":"Floor","location":"Not available","id":"ARJJRZ41187FB4C856","termsFreq":0,"longitude":-63.933357868519515},"song":{"title":"Assassin"}},{"release":{"name":"The History of Rhythm and Blues - Disc 3","id":564496},"artist":{"similar":"AR3LRVY1187B9B9E90","familiarity":0.40309526,"hotttnesss":0.301772342,"terms":"piano blues","latitude":41.0981,"name":"Tiny Bradshaw","location":"Youngstown, OH","id":"ARF1FZV1187B98C928","termsFreq":0,"longitude":-80.65079},"song":{"title":"Well Oh Well"}},{"release":{"name":"Wicked Disco \u0026 Soul Breaks","id":462652},"artist":{"similar":"ARKXRCO1187FB4C634","familiarity":0.39076084,"hotttnesss":0.207675838,"terms":"hip house","latitude":37.15735675013362,"name":"Simon Harris","location":"Not available","id":"ARLLANI1187FB5116F","termsFreq":0,"longitude":-63.933357868519515},"song":{"title":"Sample Track 17"}},{"release":{"name":"ISM","id":463023},"artist":{"similar":"ARTL6FB1187FB4EAA7","familiarity":0.613867472,"hotttnesss":0.361034556,"terms":"dirty rap","latitude":37.15735675013362,"name":"Smut Peddlers","location":"Not available","id":"ARJNQM51187FB54C55","termsFreq":0,"longitude":-63.933357868519515},"song":{"title":"Playstation Generation"}},{"release":{"name":"Get Your Head Stuck On Your Neck","id":339485},"artist":{"similar":"ARYAB031187FB5038C","familiarity":0.490009428,"hotttnesss":0.399537136,"terms":"tech house","latitude":37.15735675013362,"name":"Soul Mekanik","location":"Not available","id":"AREDL271187FB40F44","termsFreq":0,"longitude":-63.933357868519515},"song":{"title":"Get Your Head Stuck On Your Neck"}},{"release":{"name":"The Shape Of Life","id":517402},"artist":{"similar":"AR5N6X41187B988BFF","familiarity":0.45660506,"hotttnesss":0.360744984,"terms":"meditation","latitude":40.71455,"name":"Michael Whalen","location":"New York","id":"ARDXWVZ1187B9B52F1","termsFreq":0,"longitude":-74.00712},"song":{"title":"Gail Wakes Up"}},{"release":{"name":"Sonic Boom","id":601534},"artist":{"similar":"AR8KOWK1187FB4CB95","familiarity":0.589763812,"hotttnesss":0.586729913,"terms":"hard rock","latitude":37.15735675013362,"name":"Kiss","location":"New York, NY","id":"ARMI8BW1187FB57B2E","termsFreq":0,"longitude":-63.933357868519515},"song":{"title":"Stand (Album Version)"}},{"release":{"name":"Mutha Is Half a Word","id":376824},"artist":{"similar":"ARZFAGI12420783C02","familiarity":0.287521354,"hotttnesss":0.185844549,"terms":"stand-up comedy","latitude":37.15735675013362,"name":"LaWanda Page","location":"Not available","id":"ARTBHYK122988EFB03","termsFreq":0,"longitude":-63.933357868519515},"song":{"title":"The Preacher \u0026 the Funeral"}},{"release":{"name":"The Early Tapes 1975-1976","id":572855},"artist":{"similar":"AR6XEHV1187FB43D1A","familiarity":0.513829587,"hotttnesss":0.343185045,"terms":"delta blues","latitude":40.71455,"name":"Rory Block","location":"New York, NY","id":"AR8YV1I1187FB45D2B","termsFreq":0,"longitude":-74.00712},"song":{"title":"Blues Again"}},{"release":{"name":"Where You Want To Be","id":128111},"artist":{"similar":"AR0WBBL1187FB4677D","familiarity":0.911599657,"hotttnesss":0.57237398,"terms":"post-hardcore","latitude":40.85251,"name":"Taking Back Sunday","location":"Long Island, New York","id":"ARG9CID1187B9AB010","termsFreq":0,"longitude":-73.13585},"song":{"title":"I Am Fred Astaire (Album Version)"}},{"release":{"name":"The Best Of The Memphis Jug Band","id":597112},"artist":{"similar":"ARESNLF11F50C4BBF6","familiarity":0.506126774,"hotttnesss":0.350787891,"terms":"country blues","latitude":37.15735675013362,"name":"Memphis Jug Band","location":"Memphis, TN","id":"AR5GLIU1187FB4638A","termsFreq":0,"longitude":-63.933357868519515},"song":{"title":"Memphis Jug"}},{"release":{"name":"The Very Best Of Eddy Raven","id":239494},"artist":{"similar":"ARLWR721187B9A03C9","familiarity":0.464994319,"hotttnesss":0.344721111,"terms":"zydeco","latitude":30.22032,"name":"Eddy Raven","location":"Lafayette, LA","id":"ARHT0B11187B993CB3","termsFreq":0,"longitude":-92.01705},"song":{"title":"I Could Use Another You (Digital Re-Recording)"}},{"release":{"name":"En vrai","id":779324},"artist":{"similar":"ARSYS47119B8667BB7","familiarity":0.377366436,"hotttnesss":0.0,"terms":"french pop","latitude":37.15735675013362,"name":"Fred Merpol","location":"Not available","id":"ARKIQSL1241B9C90C8","termsFreq":0,"longitude":-63.933357868519515},"song":{"title":"N\u0027ayez crainte mesdames"}},{"release":{"name":"The Remixes","id":290264},"artist":{"similar":"ARKWI7M1187B9B7713","familiarity":0.934935267,"hotttnesss":0.787005469,"terms":"dance pop","latitude":40.71455,"name":"Mariah Carey Featuring Da Brat \u0026 JD","location":"New York, New York","id":"ARKSZW81187B9B695D","termsFreq":0,"longitude":-74.00712},"song":{"title":"Honey"}},{"release":{"name":"Dance Vault Remixes - Beautiful","id":308591},"artist":{"similar":"AR03BDP1187FB5B324","familiarity":0.831240277,"hotttnesss":0.725746082,"terms":"dance pop","latitude":37.15735675013362,"name":"Christina Aguilera","location":"Not available","id":"AR0S7TA1187FB4D024","termsFreq":0,"longitude":-63.933357868519515},"song":{"title":"Beautiful"}},{"release":{"name":"Three is a crowd","id":478335},"artist":{"similar":"ARZRT5M1187B98AE5C","familiarity":0.440172174,"hotttnesss":0.306319125,"terms":"ost","latitude":37.15735675013362,"name":"X-tv","location":"Not available","id":"ARVG1MI119B86678D4","termsFreq":0,"longitude":-63.933357868519515},"song":{"title":"Aftertaste"}},{"release":{"name":"The Story Of My Life","id":393782},"artist":{"similar":"ARXBG1X1187FB42A79","familiarity":0.623823768,"hotttnesss":0.441106359,"terms":"delta blues","latitude":30.43883,"name":"Irma Thomas","location":"Ponchatoula, LA","id":"ARALUUG1187FB58696","termsFreq":0,"longitude":-90.44116},"song":{"title":"We All Need Love"}},{"release":{"name":"Den Femte Statsmakt","id":737288},"artist":{"similar":"ARCJZIJ1187FB5C01F","familiarity":0.48040197,"hotttnesss":0.392325283,"terms":"blues","latitude":59.91228,"name":"Black Debbath","location":"Oslo, Norway","id":"AR93K7R1187B9AC92A","termsFreq":0,"longitude":10.74998},"song":{"title":"TredveAY\u003drsfurua PAY\u003d AskA,y"}},{"release":{"name":"Live ... Down South Somewhere","id":59798},"artist":{"similar":"ARM1ZK41187FB43FA8","familiarity":0.7244705,"hotttnesss":0.399591114,"terms":"glam rock","latitude":32.67828,"name":"Steve Harvey","location":"Georgia","id":"ARB8KZ11187B9A21ED","termsFreq":0,"longitude":-83.22295},"song":{"title":"What Woman Really Wear To Bed"}},{"release":{"name":"Tennessee Moon","id":282123},"artist":{"similar":"ARVZDOM1187B9B49C9","familiarity":0.817635146,"hotttnesss":0.564005986,"terms":"soft rock","latitude":37.15735675013362,"name":"Neil Diamond","location":"Brooklyn, NY","id":"AR40GSU1187FB3AA01","termsFreq":0,"longitude":-63.933357868519515},"song":{"title":"Reminisce For A While (Sung With Raul Malo)"}},{"release":{"name":"Antonis Remos Live","id":391799},"artist":{"similar":"ARHN6DB1187B98A139","familiarity":0.299117766,"hotttnesss":0.0,"terms":"pop folk","latitude":37.15735675013362,"name":"Antonis Remos","location":"Not available","id":"ARVAWTX1187B9A9990","termsFreq":0,"longitude":-63.933357868519515},"song":{"title":"Min Tou Milate Tou Pediou"}},{"release":{"name":"The New Kingdom","id":80912},"artist":{"similar":"ARZ185I1187FB5B8C5","familiarity":0.540971095,"hotttnesss":0.37190048,"terms":"chill-out","latitude":-34.60852,"name":"Bruno Sanfilippo","location":"Buenos Aires","id":"AR8L3QV1187FB4C0BB","termsFreq":0,"longitude":-58.37354},"song":{"title":"The Fourth Wish"}},{"release":{"name":"In wirklich","id":144076},"artist":{"similar":"ARKQW4V1187B9AD20B","familiarity":0.664559979,"hotttnesss":0.397569595,"terms":"tech house","latitude":52.51607,"name":"2raumwohnung","location":"Berlin, Germany","id":"ARNJVSL1187B99AFD4","termsFreq":0,"longitude":13.37698},"song":{"title":"MA$?dchen mit Plan"}},{"release":{"name":"Sousa In Hi-Fi","id":774097},"artist":{"similar":"ARZ8KO81187B9B1B7C","familiarity":0.695422285,"hotttnesss":0.437494807,"terms":"instrumental pop","latitude":37.15735675013362,"name":"Henry Mancini","location":"Cleveland, OH","id":"ARZWPWP1241B9CA793","termsFreq":0,"longitude":-63.933357868519515},"song":{"title":"National Fencibles March"}},{"release":{"name":"The Definitive Collection","id":54791},"artist":{"similar":"ARH3TXI1187FB3A486","familiarity":0.54474949,"hotttnesss":0.417410467,"terms":"ccm","latitude":36.16778,"name":"Cindy Morgan","location":"Nashville, TN","id":"ARYJ6RP1187B9B3827","termsFreq":0,"longitude":-86.77836},"song":{"title":"I Will Be Free (LP Version)"}},{"release":{"name":"Beyond Brasil","id":352104},